{ "type": "FeatureCollection",
    "features": [
{ "type": "Feature", "properties": {"name": "1  Brigade 3 Div 11 Corps (US)", "state": "OT","mon_type": "BM", "icon": "11","picture": "M12007-08-10T16_00_53-06_00.jpg"},"geometry": {"type": "Point", "coordinates": [-77.23485,39.8408333333333]}},
{ "type": "Feature", "properties": {"name": "1  Brigade 3 Div 2 Corps (US)", "state": "OT","mon_type": "BM", "icon": "11","picture": "M22007-08-18T19_04_24-06_00.jpg"},"geometry": {"type": "Point", "coordinates": [-77.22895,39.82155]}},
{ "type": "Feature", "properties": {"name": "1  Brigade 3 Div 5 Corps (US)", "state": "OT","mon_type": "BM", "icon": "11","picture": "M32007-10-24T09_20_43-06_00.jpg"},"geometry": {"type": "Point", "coordinates": [-77.2408666666667,39.7965166666667]}},
{ "type": "Feature", "properties": {"name": "1 Brigade 1 Div 11 Corps (US)", "state": "OT","mon_type": "BM", "icon": "11","picture": "M72007-08-24T09_52_45-06_00.jpg"},"geometry": {"type": "Point", "coordinates": [-77.2274,39.82155]}},
{ "type": "Feature", "properties": {"name": "1 Brigade 1 Div 12 Corps (US)", "state": "OT","mon_type": "BM", "icon": "11","picture": "M82007-08-28T09_07_50-06_00.jpg"},"geometry": {"type": "Point", "coordinates": [-77.2178,39.8157166666667]}},
{ "type": "Feature", "properties": {"name": "1 Brigade 1 Div 2 Corps (US)", "state": "OT","mon_type": "BM", "icon": "11","picture": "M92007-10-24T09_22_41-06_00.jpg"},"geometry": {"type": "Point", "coordinates": [-77.2416833333333,39.7961333333333]}},
{ "type": "Feature", "properties": {"name": "1 Brigade 1 Div 3 Corps (US)", "state": "OT","mon_type": "BM", "icon": "11","picture": "M102008-01-10T16_45_10-07_00.jpg"},"geometry": {"type": "Point", "coordinates": [-77.2479833333333,39.8042166666667]}},
{ "type": "Feature", "properties": {"name": "1 Brigade 1 Div 5 Corps (US)", "state": "OT","mon_type": "BM", "icon": "11","picture": "M112007-11-14T16_22_54-07_00.jpg"},"geometry": {"type": "Point", "coordinates": [-77.2462333333333,39.7972]}},
{ "type": "Feature", "properties": {"name": "1 Brigade 1 Div 6 Corps (US)", "state": "OT","mon_type": "BM", "icon": "11","picture": "NA"},"geometry": {"type": "Point", "coordinates": [-77.2343333333333,39.8007166666667]}},
{ "type": "Feature", "properties": {"name": "1 Brigade 1 Div Cavalry (US)", "state": "OT","mon_type": "BM", "icon": "6","picture": "M132007-08-02T14_56_33-06_00.jpg"},"geometry": {"type": "Point", "coordinates": [-77.2499666666667,39.835]}},
{ "type": "Feature", "properties": {"name": "1 Brigade 2 Div 1 Corps (US)", "state": "OT","mon_type": "BM", "icon": "11","picture": "M142007-08-07T16_47_56-06_00.jpg"},"geometry": {"type": "Point", "coordinates": [-77.24285,39.84145]}},
{ "type": "Feature", "properties": {"name": "1 Brigade 2 Div 11 Corps (US)", "state": "OT","mon_type": "BM", "icon": "11","picture": "M152007-08-14T06_30_01-06_00.jpg"},"geometry": {"type": "Point", "coordinates": [-77.2276333333333,39.8351]}},
{ "type": "Feature", "properties": {"name": "1 Brigade 2 Div 12 Corps (US)", "state": "OT","mon_type": "BM", "icon": "11","picture": "M162007-08-27T17_27_48-06_00.jpg"},"geometry": {"type": "Point", "coordinates": [-77.21965,39.8186166666667]}},
{ "type": "Feature", "properties": {"name": "1 Brigade 2 Div 2 Corps (US)", "state": "OT","mon_type": "BM", "icon": "11","picture": "M172007-12-28T17_21_04-07_00.jpg"},"geometry": {"type": "Point", "coordinates": [-77.2359333333333,39.8107333333333]}},
{ "type": "Feature", "properties": {"name": "1 Brigade 2 Div 3 Corps (US)", "state": "OT","mon_type": "BM", "icon": "11","picture": "M182008-01-09T16_03_33-07_00.jpg"},"geometry": {"type": "Point", "coordinates": [-77.2443166666667,39.8076166666667]}},
{ "type": "Feature", "properties": {"name": "1 Brigade 2 Div 5 Corps (US)", "state": "OT","mon_type": "BM", "icon": "11","picture": "M192007-10-28T17_00_19-06_00.jpg"},"geometry": {"type": "Point", "coordinates": [-77.24095,39.7949]}},
{ "type": "Feature", "properties": {"name": "1 Brigade 3 Div 6 Corps (US)", "state": "OT","mon_type": "BM", "icon": "11","picture": "M222007-09-03T18_08_03-06_00.jpg"},"geometry": {"type": "Point", "coordinates": [-77.2196333333333,39.8177833333333]}},
{ "type": "Feature", "properties": {"name": "1 Brigade 3 Div Cavalry (US)", "state": "OT","mon_type": "BM", "icon": "6","picture": "M232007-10-22T17_29_25-06_00.jpg"},"geometry": {"type": "Point", "coordinates": [-77.2489833333333,39.7856333333333]}},
{ "type": "Feature", "properties": {"name": "1 Brigade Cavalry Corps Horse Artillery", "state": "OT","mon_type": "AM", "icon": "5","picture": "M242008-01-05T16_09_23-07_00.jpg"},"geometry": {"type": "Point", "coordinates": [-77.2311166666667,39.8078666666667]}},
{ "type": "Feature", "properties": {"name": "1 Brigade Reg U.S. Res. Artillery (Ransom)", "state": "US","mon_type": "AM", "icon": "5","picture": "M252008-01-05T16_09_41-07_00.jpg"},"geometry": {"type": "Point", "coordinates": [-77.2358333333333,39.8077166666667]}},
{ "type": "Feature", "properties": {"name": "1 Brigade Volunteer Reserve Artillery (McGilvey)", "state": "US","mon_type": "AM", "icon": "5","picture": "M262008-01-06T17_26_06-07_00.jpg"},"geometry": {"type": "Point", "coordinates": [-77.2346166666667,39.8040166666667]}},
{ "type": "Feature", "properties": {"name": "1 Brigade Volunteer Reserve Artillery (US)", "state": "US","mon_type": "AM", "icon": "5","picture": "M272007-11-14T16_23_19-07_00.jpg"},"geometry": {"type": "Point", "coordinates": [-77.2475666666667,39.8007833333333]}},
{ "type": "Feature", "properties": {"name": "1 Corps (CSA)", "state": "OT","mon_type": "CM", "icon": "9","picture": "M282007-10-14T18_17_17-06_00.jpg"},"geometry": {"type": "Point", "coordinates": [-77.25645,39.8012333333333]}},
{ "type": "Feature", "properties": {"name": "1 Corps (US)", "state": "OT","mon_type": "CM", "icon": "12","picture": "M292007-08-03T07_34_36-06_00.jpg"},"geometry": {"type": "Point", "coordinates": [-77.2492333333333,39.8361333333333]}},
{ "type": "Feature", "properties": {"name": "1 Corps Artillery Brigade (US)", "state": "US","mon_type": "AM", "icon": "5","picture": "M302007-08-18T19_04_36-06_00.jpg"},"geometry": {"type": "Point", "coordinates": [-77.22905,39.8212166666667]}},
{ "type": "Feature", "properties": {"name": "1 Corps Hospital (US)", "state": "US","mon_type": "HM", "icon": "15","picture": "NA"},"geometry": {"type": "Point", "coordinates": [-77.19195,39.79185]}},
{ "type": "Feature", "properties": {"name": "1 Corps HQ (Doubleday)", "state": "US","mon_type": "HQ", "icon": "12","picture": "M322007-08-02T18_51_10-06_00.jpg"},"geometry": {"type": "Point", "coordinates": [-77.2496,39.8356333333333]}},
{ "type": "Feature", "properties": {"name": "1 Corps HQ (Newton)", "state": "US","mon_type": "HQ", "icon": "12","picture": "M342008-01-05T16_10_05-07_00.jpg"},"geometry": {"type": "Point", "coordinates": [-77.23165,39.8078333333333]}},
{ "type": "Feature", "properties": {"name": "1 DE", "state": "DE","mon_type": "RM", "icon": "4","picture": "M362007-12-21T14_59_57-07_00.jpg"},"geometry": {"type": "Point", "coordinates": [-77.2354666666667,39.8146333333333]}},
{ "type": "Feature", "properties": {"name": "1 Div 1 Corps (US)", "state": "US","mon_type": "DM", "icon": "10","picture": "M372007-08-05T13_44_22-06_00.jpg"},"geometry": {"type": "Point", "coordinates": [-77.2487166666667,39.8368166666667]}},
{ "type": "Feature", "properties": {"name": "1 Div 11 Corps (US)", "state": "US","mon_type": "DM", "icon": "10","picture": "M382007-08-12T19_20_58-06_00.jpg"},"geometry": {"type": "Point", "coordinates": [-77.2267333333333,39.8448333333333]}},
{ "type": "Feature", "properties": {"name": "1 Div 12 Corps (US)", "state": "US","mon_type": "DM", "icon": "10","picture": "M392007-08-28T09_41_03-06_00.jpg"},"geometry": {"type": "Point", "coordinates": [-77.2181333333333,39.8159333333333]}},
{ "type": "Feature", "properties": {"name": "1 Div 2 Corps (US)", "state": "US","mon_type": "DM", "icon": "10","picture": "M402008-01-06T18_21_15-07_00.jpg"},"geometry": {"type": "Point", "coordinates": [-77.2346333333333,39.80545]}},
{ "type": "Feature", "properties": {"name": "1 Div 3 Corps (US)", "state": "US","mon_type": "DM", "icon": "10","picture": "M412007-12-09T08_20_49-07_00.jpg"},"geometry": {"type": "Point", "coordinates": [-77.2500666666667,39.80145]}},
{ "type": "Feature", "properties": {"name": "1 Div 5 Corps (US)", "state": "US","mon_type": "DM", "icon": "10","picture": "M422007-11-18T13_38_41-07_00.jpg"},"geometry": {"type": "Point", "coordinates": [-77.245,39.7985]}},
{ "type": "Feature", "properties": {"name": "1 Div 6 Corps (US)", "state": "US","mon_type": "DM", "icon": "10","picture": "M432008-01-06T17_26_16-07_00.jpg"},"geometry": {"type": "Point", "coordinates": [-77.2347,39.7975166666667]}},
{ "type": "Feature", "properties": {"name": "1 Div Cavalry Corps (US)", "state": "US","mon_type": "DM", "icon": "6","picture": "M442007-08-02T14_57_40-06_00.jpg"},"geometry": {"type": "Point", "coordinates": [-77.2498333333333,39.8351833333333]}},
{ "type": "Feature", "properties": {"name": "1 July  ANV Itinerary Tablet", "state": "OT","mon_type": "IT", "icon": "17","picture": "M13552007-09-06T15_49_20-06_00.jpg"},"geometry": {"type": "Point", "coordinates": [-77.2447833333333,39.8272666666667]}},
{ "type": "Feature", "properties": {"name": "1 MA", "state": "MA","mon_type": "RM", "icon": "4","picture": "M492008-01-09T15_30_42-07_00.jpg"},"geometry": {"type": "Point", "coordinates": [-77.2436833333333,39.8087833333333]}},
{ "type": "Feature", "properties": {"name": "1 MA Cavalry", "state": "MA","mon_type": "CM", "icon": "6","picture": "M512007-12-09T13_39_54-07_00.jpg"},"geometry": {"type": "Point", "coordinates": [-77.2341333333333,39.7960666666667]}},
{ "type": "Feature", "properties": {"name": "1 MD (Eastern Shore)", "state": "MD","mon_type": "RM", "icon": "4","picture": "M522007-08-27T17_27_58-06_00.jpg"},"geometry": {"type": "Point", "coordinates": [-77.2196333333333,39.8192166666667]}},
{ "type": "Feature", "properties": {"name": "1 MD (PHB)", "state": "MD","mon_type": "RM", "icon": "4","picture": "M552007-08-28T08_47_06-06_00.jpg"},"geometry": {"type": "Point", "coordinates": [-77.2168833333333,39.8148166666667]}},
{ "type": "Feature", "properties": {"name": "1 MD Artillery (Dement)", "state": "MD","mon_type": "AM", "icon": "2","picture": "M582007-08-19T16_33_29-06_00.jpg"},"geometry": {"type": "Point", "coordinates": [-77.21395,39.8267666666667]}},
{ "type": "Feature", "properties": {"name": "1 MD Cavalry", "state": "MD","mon_type": "CM", "icon": "6","picture": "NA"},"geometry": {"type": "Point", "coordinates": [-77.1631,39.8252833333333]}},
{ "type": "Feature", "properties": {"name": "1 ME Cavalry", "state": "ME","mon_type": "CM", "icon": "6","picture": "NA"},"geometry": {"type": "Point", "coordinates": [-77.16935,39.81805]}},
{ "type": "Feature", "properties": {"name": "1 MI", "state": "MI","mon_type": "RM", "icon": "4","picture": "M612007-11-14T16_23_32-07_00.jpg"},"geometry": {"type": "Point", "coordinates": [-77.2465,39.7973166666667]}},
{ "type": "Feature", "properties": {"name": "1 MN", "state": "MN","mon_type": "RM", "icon": "4","picture": "M642007-12-28T17_21_14-07_00.jpg"},"geometry": {"type": "Point", "coordinates": [-77.2360833333333,39.8105]}},
{ "type": "Feature", "properties": {"name": "1 MN", "state": "MN","mon_type": "RM", "icon": "4","picture": "M652007-08-17T11_42_00-06_00.jpg"},"geometry": {"type": "Point", "coordinates": [-77.23165,39.8196166666667]}},
{ "type": "Feature", "properties": {"name": "1 MN", "state": "MN","mon_type": "RM", "icon": "4","picture": "M662008-01-06T17_26_27-07_00.jpg"},"geometry": {"type": "Point", "coordinates": [-77.235,39.80665]}},
{ "type": "Feature", "properties": {"name": "1 NH Artillery", "state": "NH","mon_type": "AM", "icon": "5","picture": "M672007-08-17T11_42_08-06_00.jpg"},"geometry": {"type": "Point", "coordinates": [-77.2323,39.8180333333333]}},
{ "type": "Feature", "properties": {"name": "1 NY Artillery (Cowan)", "state": "NY","mon_type": "AM", "icon": "5","picture": "M702007-12-25T16_58_14-07_00.jpg"},"geometry": {"type": "Point", "coordinates": [-77.2356166666667,39.8123666666667]}},
{ "type": "Feature", "properties": {"name": "1 PA Cavalry", "state": "PA","mon_type": "CM", "icon": "6","picture": "M712007-12-25T16_58_28-07_00.jpg"},"geometry": {"type": "Point", "coordinates": [-77.2353833333333,39.8128833333333]}},
{ "type": "Feature", "properties": {"name": "1 PA Reserves", "state": "PA","mon_type": "RM", "icon": "4","picture": "M742007-10-24T09_24_45-06_00.jpg"},"geometry": {"type": "Point", "coordinates": [-77.2406333333333,39.7967166666667]}},
{ "type": "Feature", "properties": {"name": "1 Richmond VA Artillery (McCarthy)", "state": "VA","mon_type": "AM", "icon": "2","picture": "M772007-10-19T16_25_53-06_00.jpg"},"geometry": {"type": "Point", "coordinates": [-77.2554833333333,39.7965833333333]}},
{ "type": "Feature", "properties": {"name": "1 US Sharpshooters (MA)", "state": "MA","mon_type": "RM", "icon": "4","picture": "M792007-12-24T15_56_38-07_00.jpg"},"geometry": {"type": "Point", "coordinates": [-77.2355,39.8136833333333]}},
{ "type": "Feature", "properties": {"name": "1 US Sharpshooters (MA)", "state": "MA","mon_type": "RM", "icon": "4","picture": "M802007-12-20T17_02_30-07_00.jpg"},"geometry": {"type": "Point", "coordinates": [-77.2340166666667,39.817]}},
{ "type": "Feature", "properties": {"name": "1 VT Cavalry", "state": "VT","mon_type": "CM", "icon": "6","picture": "M812007-10-22T18_00_09-06_00.jpg"},"geometry": {"type": "Point", "coordinates": [-77.2437833333333,39.7869]}},
{ "type": "Feature", "properties": {"name": "1 WV Cavalry", "state": "WV","mon_type": "CM", "icon": "6","picture": "M822008-01-05T17_15_23-07_00.jpg"},"geometry": {"type": "Point", "coordinates": [-77.2306166666667,39.8086166666667]}},
{ "type": "Feature", "properties": {"name": "10 MA", "state": "MA","mon_type": "RM", "icon": "4","picture": "M832007-12-09T13_41_41-07_00.jpg"},"geometry": {"type": "Point", "coordinates": [-77.2341666666667,39.7964]}},
{ "type": "Feature", "properties": {"name": "10 ME", "state": "ME","mon_type": "RM", "icon": "4","picture": "NA"},"geometry": {"type": "Point", "coordinates": [-77.2207666666667,39.81155]}},
{ "type": "Feature", "properties": {"name": "10 NY", "state": "NY","mon_type": "RM", "icon": "4","picture": "M872007-12-21T15_17_19-07_00.jpg"},"geometry": {"type": "Point", "coordinates": [-77.2344333333333,39.8143]}},
{ "type": "Feature", "properties": {"name": "10 NY Artillery", "state": "NY","mon_type": "AM", "icon": "5","picture": "M882007-11-14T17_34_59-07_00.jpg"},"geometry": {"type": "Point", "coordinates": [-77.24715,39.80065]}},
{ "type": "Feature", "properties": {"name": "10 PA Reserves", "state": "PA","mon_type": "RM", "icon": "4","picture": "M922007-10-22T18_00_20-06_00.jpg"},"geometry": {"type": "Point", "coordinates": [-77.2377,39.7885666666667]}},
{ "type": "Feature", "properties": {"name": "10 US Regulars", "state": "US","mon_type": "RM", "icon": "4","picture": "M952007-07-29T16_45_17-06_00.jpg"},"geometry": {"type": "Point", "coordinates": [-77.2414,39.7949166666667]}},
{ "type": "Feature", "properties": {"name": "102 PA", "state": "PA","mon_type": "RM", "icon": "4","picture": "M962008-01-08T16_06_20-07_00.jpg"},"geometry": {"type": "Point", "coordinates": [-77.2374,39.7974666666667]}},
{ "type": "Feature", "properties": {"name": "104 NY", "state": "NY","mon_type": "RM", "icon": "4","picture": "M992007-08-05T15_41_00-06_00.jpg"},"geometry": {"type": "Point", "coordinates": [-77.2415666666667,39.8432333333333]}},
{ "type": "Feature", "properties": {"name": "105 PA", "state": "PA","mon_type": "RM", "icon": "4","picture": "M1022008-01-10T16_45_21-07_00.jpg"},"geometry": {"type": "Point", "coordinates": [-77.2479833333333,39.8042166666667]}},
{ "type": "Feature", "properties": {"name": "106 PA", "state": "PA","mon_type": "RM", "icon": "4","picture": "M1032007-08-18T08_13_13-06_00.jpg"},"geometry": {"type": "Point", "coordinates": [-77.2295166666667,39.8221833333333]}},
{ "type": "Feature", "properties": {"name": "106 PA", "state": "PA","mon_type": "RM", "icon": "4","picture": "M1052007-12-25T16_58_41-07_00.jpg"},"geometry": {"type": "Point", "coordinates": [-77.2356166666667,39.8125833333333]}},
{ "type": "Feature", "properties": {"name": "107 NY", "state": "NY","mon_type": "RM", "icon": "4","picture": "M1082007-08-28T08_47_15-06_00.jpg"},"geometry": {"type": "Point", "coordinates": [-77.2167666666667,39.8147]}},
{ "type": "Feature", "properties": {"name": "107 OH", "state": "OH","mon_type": "RM", "icon": "4","picture": "M1112007-08-12T12_30_38-06_00.jpg"},"geometry": {"type": "Point", "coordinates": [-77.2275,39.8446]}},
{ "type": "Feature", "properties": {"name": "107 PA", "state": "PA","mon_type": "RM", "icon": "4","picture": "M1142007-08-07T16_48_06-06_00.jpg"},"geometry": {"type": "Point", "coordinates": [-77.24265,39.8419333333333]}},
{ "type": "Feature", "properties": {"name": "107 PA", "state": "PA","mon_type": "RM", "icon": "4","picture": "M1152007-12-20T17_42_39-07_00.jpg"},"geometry": {"type": "Point", "coordinates": [-77.2353,39.8158]}},
{ "type": "Feature", "properties": {"name": "108 NY", "state": "NY","mon_type": "RM", "icon": "4","picture": "M1182007-12-20T17_42_48-07_00.jpg"},"geometry": {"type": "Point", "coordinates": [-77.2346166666667,39.8162666666667]}},
{ "type": "Feature", "properties": {"name": "109 PA", "state": "PA","mon_type": "RM", "icon": "4","picture": "M1212007-09-03T18_08_16-06_00.jpg"},"geometry": {"type": "Point", "coordinates": [-77.2192666666667,39.8169]}},
{ "type": "Feature", "properties": {"name": "11 Corps (US)", "state": "OT","mon_type": "CM", "icon": "12","picture": "M1242007-08-12T12_30_48-06_00.jpg"},"geometry": {"type": "Point", "coordinates": [-77.2318,39.8429333333333]}},
{ "type": "Feature", "properties": {"name": "11 Corps HQ (Howard)", "state": "OT","mon_type": "HQ", "icon": "12","picture": "M1262007-08-18T08_13_24-06_00.jpg"},"geometry": {"type": "Point", "coordinates": [-77.22885,39.82165]}},
{ "type": "Feature", "properties": {"name": "11 MA", "state": "MA","mon_type": "RM", "icon": "4","picture": "M1272008-01-09T15_30_51-07_00.jpg"},"geometry": {"type": "Point", "coordinates": [-77.2440333333333,39.8080666666667]}},
{ "type": "Feature", "properties": {"name": "11 MS", "state": "MS","mon_type": "RM", "icon": "1","picture": "M1312007-07-19T15_16_57-06_00.jpg"},"geometry": {"type": "Point", "coordinates": [-77.24765,39.8188]}},
{ "type": "Feature", "properties": {"name": "11 MS", "state": "MS","mon_type": "RM", "icon": "1","picture": "M1302007-12-20T18_28_59-07_00.jpg"},"geometry": {"type": "Point", "coordinates": [-77.2355333333333,39.8152833333333]}},
{ "type": "Feature", "properties": {"name": "11 NJ", "state": "NJ","mon_type": "RM", "icon": "4","picture": "M1322008-01-09T15_31_02-07_00.jpg"},"geometry": {"type": "Point", "coordinates": [-77.24665,39.8059166666667]}},
{ "type": "Feature", "properties": {"name": "11 NY Artillery", "state": "NY","mon_type": "AM", "icon": "5","picture": "M1352007-12-25T16_58_56-07_00.jpg"},"geometry": {"type": "Point", "coordinates": [-77.2353,39.8137666666667]}},
{ "type": "Feature", "properties": {"name": "11 PA", "state": "PA","mon_type": "RM", "icon": "4","picture": "M1362007-08-07T16_48_22-06_00.jpg"},"geometry": {"type": "Point", "coordinates": [-77.24255,39.84215]}},
{ "type": "Feature", "properties": {"name": "11 PA Reserves", "state": "PA","mon_type": "RM", "icon": "4","picture": "M1382007-10-24T09_32_05-06_00.jpg"},"geometry": {"type": "Point", "coordinates": [-77.2401166666667,39.7969833333333]}},
{ "type": "Feature", "properties": {"name": "11 US Regulars", "state": "US","mon_type": "RM", "icon": "4","picture": "M1422007-07-29T16_47_16-06_00.jpg"},"geometry": {"type": "Point", "coordinates": [-77.2412833333333,39.7947333333333]}},
{ "type": "Feature", "properties": {"name": "110 PA", "state": "PA","mon_type": "RM", "icon": "4","picture": "M1432007-10-31T15_07_08-06_00.jpg"},"geometry": {"type": "Point", "coordinates": [-77.2461333333333,39.7965833333333]}},
{ "type": "Feature", "properties": {"name": "111 NY", "state": "NY","mon_type": "RM", "icon": "4","picture": "M1462007-12-20T17_41_23-07_00.jpg"},"geometry": {"type": "Point", "coordinates": [-77.2353833333333,39.8154666666667]}},
{ "type": "Feature", "properties": {"name": "111 PA", "state": "PA","mon_type": "RM", "icon": "4","picture": "M1492007-09-02T09_36_05-06_00.jpg"},"geometry": {"type": "Point", "coordinates": [-77.2189,39.81675]}},
{ "type": "Feature", "properties": {"name": "114 PA", "state": "PA","mon_type": "RM", "icon": "4","picture": "M1522008-01-10T16_45_29-07_00.jpg"},"geometry": {"type": "Point", "coordinates": [-77.2487666666667,39.8035333333333]}},
{ "type": "Feature", "properties": {"name": "114 PA", "state": "PA","mon_type": "RM", "icon": "4","picture": "M1532007-12-25T17_39_21-07_00.jpg"},"geometry": {"type": "Point", "coordinates": [-77.23465,39.8135166666667]}},
{ "type": "Feature", "properties": {"name": "115 PA", "state": "PA","mon_type": "RM", "icon": "4","picture": "M1562007-10-31T15_07_17-06_00.jpg"},"geometry": {"type": "Point", "coordinates": [-77.24465,39.7958333333333]}},
{ "type": "Feature", "properties": {"name": "116 PA", "state": "PA","mon_type": "RM", "icon": "4","picture": "M1592007-11-14T17_24_33-07_00.jpg"},"geometry": {"type": "Point", "coordinates": [-77.24585,39.7974666666667]}},
{ "type": "Feature", "properties": {"name": "118 PA", "state": "PA","mon_type": "RM", "icon": "4","picture": "M1632007-11-14T17_24_46-07_00.jpg"},"geometry": {"type": "Point", "coordinates": [-77.2468833333333,39.7975833333333]}},
{ "type": "Feature", "properties": {"name": "119 NY", "state": "NY","mon_type": "RM", "icon": "4","picture": "M1692007-08-12T12_30_58-06_00.jpg"},"geometry": {"type": "Point", "coordinates": [-77.2307333333333,39.8431166666667]}},
{ "type": "Feature", "properties": {"name": "12 & 44 NY", "state": "PA","mon_type": "RM", "icon": "4","picture": "M1762007-12-27T16_41_25-07_00.jpg"},"geometry": {"type": "Point", "coordinates": [-77.2370666666667,39.7912833333333]}},
{ "type": "Feature", "properties": {"name": "12 Corps (US)", "state": "OT","mon_type": "CM", "icon": "12","picture": "M1772007-09-02T09_36_14-06_00.jpg"},"geometry": {"type": "Point", "coordinates": [-77.21895,39.8163833333333]}},
{ "type": "Feature", "properties": {"name": "12 Corps HQ", "state": "OT","mon_type": "HQ", "icon": "12","picture": "NA"},"geometry": {"type": "Point", "coordinates": [-77.2178333333333,39.8078666666667]}},
{ "type": "Feature", "properties": {"name": "12 IL Cavalry", "state": "IL","mon_type": "CM", "icon": "6","picture": "M1802007-08-05T14_09_02-06_00.jpg"},"geometry": {"type": "Point", "coordinates": [-77.24855,39.8370833333333]}},
{ "type": "Feature", "properties": {"name": "12 MA", "state": "MA","mon_type": "RM", "icon": "4","picture": "M1812007-08-05T15_41_09-06_00.jpg"},"geometry": {"type": "Point", "coordinates": [-77.2420666666667,39.8436833333333]}},
{ "type": "Feature", "properties": {"name": "12 MA", "state": "MA","mon_type": "RM", "icon": "4","picture": "M1832007-12-20T17_02_44-07_00.jpg"},"geometry": {"type": "Point", "coordinates": [-77.2334333333333,39.8172166666667]}},
{ "type": "Feature", "properties": {"name": "12 MA", "state": "MA","mon_type": "RM", "icon": "4","picture": "M1822008-01-06T17_26_39-07_00.jpg"},"geometry": {"type": "Point", "coordinates": [-77.2351,39.8067333333333]}},
{ "type": "Feature", "properties": {"name": "12 NH", "state": "NH","mon_type": "RM", "icon": "4","picture": "M1862008-01-09T15_31_13-07_00.jpg"},"geometry": {"type": "Point", "coordinates": [-77.24595,39.80655]}},
{ "type": "Feature", "properties": {"name": "12 NJ", "state": "NJ","mon_type": "RM", "icon": "4","picture": "M1902007-12-20T17_43_00-07_00.jpg"},"geometry": {"type": "Point", "coordinates": [-77.2354666666667,39.8151666666667]}},
{ "type": "Feature", "properties": {"name": "12 US Regulars", "state": "US","mon_type": "RM", "icon": "4","picture": "M1962007-07-29T16_45_42-06_00.jpg"},"geometry": {"type": "Point", "coordinates": [-77.24115,39.7947833333333]}},
{ "type": "Feature", "properties": {"name": "120 NY", "state": "NY","mon_type": "RM", "icon": "4","picture": "M1982008-01-09T14_57_43-07_00.jpg"},"geometry": {"type": "Point", "coordinates": [-77.2461,39.8046833333333]}},
{ "type": "Feature", "properties": {"name": "121 NY", "state": "NY","mon_type": "RM", "icon": "4","picture": "M2012008-01-10T16_34_14-07_00.jpg"},"geometry": {"type": "Point", "coordinates": [-77.2355666666667,39.7936333333333]}},
{ "type": "Feature", "properties": {"name": "121 PA", "state": "PA","mon_type": "RM", "icon": "4","picture": "M2042007-12-28T17_22_31-07_00.jpg"},"geometry": {"type": "Point", "coordinates": [-77.23545,39.8109166666667]}},
{ "type": "Feature", "properties": {"name": "121 PA", "state": "PA","mon_type": "RM", "icon": "4","picture": "M2052007-07-29T14_14_01-06_00.jpg"},"geometry": {"type": "Point", "coordinates": [-77.2516666666667,39.8304666666667]}},
{ "type": "Feature", "properties": {"name": "122 NY", "state": "NY","mon_type": "RM", "icon": "4","picture": "M2082007-09-03T18_08_25-06_00.jpg"},"geometry": {"type": "Point", "coordinates": [-77.2193333333333,39.8178166666667]}},
{ "type": "Feature", "properties": {"name": "123 NY", "state": "NY","mon_type": "RM", "icon": "4","picture": "NA"},"geometry": {"type": "Point", "coordinates": [-77.2424166666667,39.7927666666667]}},
{ "type": "Feature", "properties": {"name": "123 NY", "state": "NY","mon_type": "RM", "icon": "4","picture": "M2102007-08-28T08_47_37-06_00.jpg"},"geometry": {"type": "Point", "coordinates": [-77.2178666666667,39.8160166666667]}},
{ "type": "Feature", "properties": {"name": "124 NY", "state": "NY","mon_type": "RM", "icon": "4","picture": "M2142007-11-07T08_09_54-07_00.jpg"},"geometry": {"type": "Point", "coordinates": [-77.2426833333333,39.7928]}},
{ "type": "Feature", "properties": {"name": "124 NY", "state": "NY","mon_type": "RM", "icon": "4","picture": "M2152008-01-05T16_10_31-07_00.jpg"},"geometry": {"type": "Point", "coordinates": [-77.2353333333333,39.8087]}},
{ "type": "Feature", "properties": {"name": "125 NY", "state": "NY","mon_type": "RM", "icon": "4","picture": "M2172007-12-21T15_00_06-07_00.jpg"},"geometry": {"type": "Point", "coordinates": [-77.2352333333333,39.8147166666667]}},
{ "type": "Feature", "properties": {"name": "126 NY", "state": "NY","mon_type": "RM", "icon": "4","picture": "M2202007-12-20T17_43_11-07_00.jpg"},"geometry": {"type": "Point", "coordinates": [-77.2344666666667,39.8167]}},
{ "type": "Feature", "properties": {"name": "13 G&I NJ", "state": "NJ","mon_type": "RM", "icon": "4","picture": "NA"},"geometry": {"type": "Point", "coordinates": [-77.2151833333333,39.8131]}},
{ "type": "Feature", "properties": {"name": "13 MA", "state": "MA","mon_type": "RM", "icon": "4","picture": "M2242007-08-05T15_41_33-06_00.jpg"},"geometry": {"type": "Point", "coordinates": [-77.2411166666667,39.8428333333333]}},
{ "type": "Feature", "properties": {"name": "13 NJ", "state": "NJ","mon_type": "RM", "icon": "4","picture": "M2272007-09-03T18_08_35-06_00.jpg"},"geometry": {"type": "Point", "coordinates": [-77.21475,39.8131]}},
{ "type": "Feature", "properties": {"name": "13 NY Artillery", "state": "NY","mon_type": "AM", "icon": "5","picture": "M2302007-08-12T12_31_06-06_00.jpg"},"geometry": {"type": "Point", "coordinates": [-77.2329333333333,39.8425333333333]}},
{ "type": "Feature", "properties": {"name": "13 PA Reserves", "state": "PA","mon_type": "RM", "icon": "4","picture": "M2332007-07-29T16_47_58-06_00.jpg"},"geometry": {"type": "Point", "coordinates": [-77.2412833333333,39.7951333333333]}},
{ "type": "Feature", "properties": {"name": "13 VT", "state": "VT","mon_type": "RM", "icon": "4","picture": "M2382007-12-29T15_06_11-07_00.jpg"},"geometry": {"type": "Point", "coordinates": [-77.2368,39.8097333333333]}},
{ "type": "Feature", "properties": {"name": "13 VT", "state": "VT","mon_type": "RM", "icon": "4","picture": "M2392007-12-29T15_07_38-07_00.jpg"},"geometry": {"type": "Point", "coordinates": [-77.2366166666667,39.8114166666667]}},
{ "type": "Feature", "properties": {"name": "13 VT", "state": "VT","mon_type": "RM", "icon": "4","picture": "M2372007-12-29T14_47_14-07_00.jpg"},"geometry": {"type": "Point", "coordinates": [-77.23615,39.8096]}},
{ "type": "Feature", "properties": {"name": "13 VT", "state": "VT","mon_type": "RM", "icon": "4","picture": "M2362007-12-29T14_47_01-07_00.jpg"},"geometry": {"type": "Point", "coordinates": [-77.2362666666667,39.8096833333333]}},
{ "type": "Feature", "properties": {"name": "134 NY", "state": "NY","mon_type": "RM", "icon": "4","picture": "M2402007-08-18T08_13_33-06_00.jpg"},"geometry": {"type": "Point", "coordinates": [-77.2294333333333,39.8221833333333]}},
{ "type": "Feature", "properties": {"name": "134 NY", "state": "NY","mon_type": "RM", "icon": "4","picture": "M2412007-08-14T06_30_15-06_00.jpg"},"geometry": {"type": "Point", "coordinates": [-77.2272166666667,39.8351833333333]}},
{ "type": "Feature", "properties": {"name": "137 NY", "state": "NY","mon_type": "RM", "icon": "4","picture": "M2452007-09-03T18_08_44-06_00.jpg"},"geometry": {"type": "Point", "coordinates": [-77.2195666666667,39.8174166666667]}},
{ "type": "Feature", "properties": {"name": "139 PA", "state": "PA","mon_type": "RM", "icon": "4","picture": "M2482008-01-08T15_34_35-07_00.jpg"},"geometry": {"type": "Point", "coordinates": [-77.2379166666667,39.7966166666667]}},
{ "type": "Feature", "properties": {"name": "139 PA", "state": "PA","mon_type": "RM", "icon": "4","picture": "M2492007-11-14T16_24_03-07_00.jpg"},"geometry": {"type": "Point", "coordinates": [-77.24705,39.8011166666667]}},
{ "type": "Feature", "properties": {"name": "14 CT", "state": "CT","mon_type": "RM", "icon": "4","picture": "M2542007-12-24T15_56_48-07_00.jpg"},"geometry": {"type": "Point", "coordinates": [-77.2354333333333,39.8138666666667]}},
{ "type": "Feature", "properties": {"name": "14 IN", "state": "IN","mon_type": "RM", "icon": "4","picture": "M2562007-08-18T19_04_48-06_00.jpg"},"geometry": {"type": "Point", "coordinates": [-77.2289,39.82145]}},
{ "type": "Feature", "properties": {"name": "14 US Regulars", "state": "US","mon_type": "RM", "icon": "4","picture": "M2592007-10-28T17_45_12-06_00.jpg"},"geometry": {"type": "Point", "coordinates": [-77.2408166666667,39.7939333333333]}},
{ "type": "Feature", "properties": {"name": "14 VT", "state": "VT","mon_type": "RM", "icon": "4","picture": "M2602007-12-29T14_47_32-07_00.jpg"},"geometry": {"type": "Point", "coordinates": [-77.2366166666667,39.80885]}},
{ "type": "Feature", "properties": {"name": "140 NY", "state": "NY","mon_type": "RM", "icon": "19","picture": "M2612007-12-27T16_41_38-07_00.jpg"},"geometry": {"type": "Point", "coordinates": [-77.2371,39.7915]}},
{ "type": "Feature", "properties": {"name": "140 PA", "state": "PA","mon_type": "RM", "icon": "4","picture": "M2642007-11-14T16_24_16-07_00.jpg"},"geometry": {"type": "Point", "coordinates": [-77.2461166666667,39.7976333333333]}},
{ "type": "Feature", "properties": {"name": "140 PA", "state": "PA","mon_type": "RM", "icon": "4","picture": "M2652007-11-14T16_24_24-07_00.jpg"},"geometry": {"type": "Point", "coordinates": [-77.2455666666667,39.7975166666667]}},
{ "type": "Feature", "properties": {"name": "141 PA", "state": "PA","mon_type": "RM", "icon": "4","picture": "M2692007-12-09T08_21_00-07_00.jpg"},"geometry": {"type": "Point", "coordinates": [-77.2488333333333,39.8011166666667]}},
{ "type": "Feature", "properties": {"name": "142 PA", "state": "PA","mon_type": "RM", "icon": "4","picture": "M2722007-07-29T14_40_20-06_00.jpg"},"geometry": {"type": "Point", "coordinates": [-77.2507833333333,39.83275]}},
{ "type": "Feature", "properties": {"name": "143 PA", "state": "PA","mon_type": "RM", "icon": "4","picture": "M2752007-08-02T18_54_08-06_00.jpg"},"geometry": {"type": "Point", "coordinates": [-77.2495833333333,39.8365]}},
{ "type": "Feature", "properties": {"name": "143 PA", "state": "PA","mon_type": "RM", "icon": "4","picture": "M2762007-12-29T14_47_40-07_00.jpg"},"geometry": {"type": "Point", "coordinates": [-77.23615,39.8098666666667]}},
{ "type": "Feature", "properties": {"name": "145 NY", "state": "NY","mon_type": "RM", "icon": "4","picture": "M2812007-08-28T08_47_47-06_00.jpg"},"geometry": {"type": "Point", "coordinates": [-77.2172666666667,39.8153333333333]}},
{ "type": "Feature", "properties": {"name": "145 PA", "state": "MD","mon_type": "RM", "icon": "4","picture": "M2822007-10-31T15_07_27-06_00.jpg"},"geometry": {"type": "Point", "coordinates": [-77.2472,39.7955333333333]}},
{ "type": "Feature", "properties": {"name": "146 NY", "state": "NY","mon_type": "RM", "icon": "4","picture": "M2852007-12-27T16_42_03-07_00.jpg"},"geometry": {"type": "Point", "coordinates": [-77.23665,39.7927833333333]}},
{ "type": "Feature", "properties": {"name": "147 NY", "state": "NY","mon_type": "RM", "icon": "4","picture": "M2882007-08-05T14_09_26-06_00.jpg"},"geometry": {"type": "Point", "coordinates": [-77.2477833333333,39.8380833333333]}},
{ "type": "Feature", "properties": {"name": "147 PA", "state": "PA","mon_type": "RM", "icon": "4","picture": "M2922007-09-03T18_08_53-06_00.jpg"},"geometry": {"type": "Point", "coordinates": [-77.2203833333333,39.8156833333333]}},
{ "type": "Feature", "properties": {"name": "147 PA", "state": "PA","mon_type": "RM", "icon": "4","picture": "M2942008-01-06T18_43_15-07_00.jpg"},"geometry": {"type": "Point", "coordinates": [-77.2344333333333,39.7945]}},
{ "type": "Feature", "properties": {"name": "148 PA", "state": "PA","mon_type": "RM", "icon": "4","picture": "M2982007-10-24T09_39_12-06_00.jpg"},"geometry": {"type": "Point", "coordinates": [-77.2418833333333,39.7960833333333]}},
{ "type": "Feature", "properties": {"name": "148 PA", "state": "PA","mon_type": "RM", "icon": "4","picture": "M2992008-01-06T17_26_59-07_00.jpg"},"geometry": {"type": "Point", "coordinates": [-77.2348333333333,39.8055]}},
{ "type": "Feature", "properties": {"name": "149 NY", "state": "NY","mon_type": "RM", "icon": "4","picture": "M3022007-09-03T18_09_08-06_00.jpg"},"geometry": {"type": "Point", "coordinates": [-77.2192833333333,39.8179]}},
{ "type": "Feature", "properties": {"name": "149 PA", "state": "PA","mon_type": "RM", "icon": "4","picture": "M3052007-12-28T17_22_40-07_00.jpg"},"geometry": {"type": "Point", "coordinates": [-77.2357833333333,39.8101333333333]}},
{ "type": "Feature", "properties": {"name": "149 PA", "state": "PA","mon_type": "RM", "icon": "4","picture": "M3042007-07-29T15_14_41-06_00.jpg"},"geometry": {"type": "Point", "coordinates": [-77.2514,39.8375333333333]}},
{ "type": "Feature", "properties": {"name": "149D PA", "state": "PA","mon_type": "RM", "icon": "4","picture": "NA"},"geometry": {"type": "Point", "coordinates": [-77.2440666666667,39.8295166666667]}},
{ "type": "Feature", "properties": {"name": "15 & 50 NY Engineers", "state": "NY","mon_type": "RM", "icon": "19","picture": "M3092008-01-05T16_10_41-07_00.jpg"},"geometry": {"type": "Point", "coordinates": [-77.23325,39.80805]}},
{ "type": "Feature", "properties": {"name": "15 MA", "state": "MA","mon_type": "RM", "icon": "4","picture": "M3102007-12-28T17_22_50-07_00.jpg"},"geometry": {"type": "Point", "coordinates": [-77.2361,39.8107333333333]}},
{ "type": "Feature", "properties": {"name": "15 MA", "state": "MA","mon_type": "RM", "icon": "4","picture": "M3112007-12-24T15_57_01-07_00.jpg"},"geometry": {"type": "Point", "coordinates": [-77.2358833333333,39.81235]}},
{ "type": "Feature", "properties": {"name": "15 NY Artillery", "state": "NY","mon_type": "AM", "icon": "5","picture": "M3152007-11-14T17_42_31-07_00.jpg"},"geometry": {"type": "Point", "coordinates": [-77.2482,39.80105]}},
{ "type": "Feature", "properties": {"name": "15 NY Artillery", "state": "NY","mon_type": "AM", "icon": "5","picture": "M3162008-01-06T17_27_11-07_00.jpg"},"geometry": {"type": "Point", "coordinates": [-77.2347666666667,39.8052333333333]}},
{ "type": "Feature", "properties": {"name": "150 NY", "state": "NY","mon_type": "RM", "icon": "4","picture": "M3192007-08-27T17_28_10-06_00.jpg"},"geometry": {"type": "Point", "coordinates": [-77.2195666666667,39.81915]}},
{ "type": "Feature", "properties": {"name": "150 PA", "state": "PA","mon_type": "RM", "icon": "4","picture": "M3242007-07-29T15_37_22-06_00.jpg"},"geometry": {"type": "Point", "coordinates": [-77.2521833333333,39.8369]}},
{ "type": "Feature", "properties": {"name": "150 PA", "state": "PA","mon_type": "RM", "icon": "4","picture": "M3232007-12-28T17_23_00-07_00.jpg"},"geometry": {"type": "Point", "coordinates": [-77.2355,39.8106333333333]}},
{ "type": "Feature", "properties": {"name": "151 PA", "state": "PA","mon_type": "RM", "icon": "4","picture": "M3272007-08-02T14_58_03-06_00.jpg"},"geometry": {"type": "Point", "coordinates": [-77.251,39.83375]}},
{ "type": "Feature", "properties": {"name": "153 PA", "state": "PA","mon_type": "RM", "icon": "4","picture": "M3302007-08-12T19_21_06-06_00.jpg"},"geometry": {"type": "Point", "coordinates": [-77.2261666666667,39.8456833333333]}},
{ "type": "Feature", "properties": {"name": "153 PA", "state": "PA","mon_type": "RM", "icon": "4","picture": "M3312007-08-24T09_52_56-06_00.jpg"},"geometry": {"type": "Point", "coordinates": [-77.2273333333333,39.8215333333333]}},
{ "type": "Feature", "properties": {"name": "154 NY", "state": "NY","mon_type": "RM", "icon": "4","picture": "M3342007-08-14T06_30_25-06_00.jpg"},"geometry": {"type": "Point", "coordinates": [-77.22755,39.8351666666667]}},
{ "type": "Feature", "properties": {"name": "155 PA", "state": "PA","mon_type": "RM", "icon": "4","picture": "M3372007-12-27T17_34_02-07_00.jpg"},"geometry": {"type": "Point", "coordinates": [-77.2365833333333,39.7929666666667]}},
{ "type": "Feature", "properties": {"name": "157 NY", "state": "NY","mon_type": "RM", "icon": "4","picture": "M3402007-08-12T12_31_15-06_00.jpg"},"geometry": {"type": "Point", "coordinates": [-77.23135,39.8430666666667]}},
{ "type": "Feature", "properties": {"name": "157 NY", "state": "NY","mon_type": "RM", "icon": "4","picture": "M3412007-08-10T16_01_03-06_00.jpg"},"geometry": {"type": "Point", "coordinates": [-77.2364833333333,39.84015]}},
{ "type": "Feature", "properties": {"name": "16 MA", "state": "MA","mon_type": "RM", "icon": "4","picture": "M3432008-01-09T15_31_21-07_00.jpg"},"geometry": {"type": "Point", "coordinates": [-77.2453333333333,39.80705]}},
{ "type": "Feature", "properties": {"name": "16 ME", "state": "ME","mon_type": "RM", "icon": "4","picture": "M3472007-08-05T15_41_47-06_00.jpg"},"geometry": {"type": "Point", "coordinates": [-77.2419333333333,39.8445666666667]}},
{ "type": "Feature", "properties": {"name": "16 ME", "state": "ME","mon_type": "RM", "icon": "4","picture": "M3462007-08-07T16_48_34-06_00.jpg"},"geometry": {"type": "Point", "coordinates": [-77.24275,39.84155]}},
{ "type": "Feature", "properties": {"name": "16 MI", "state": "MI","mon_type": "RM", "icon": "4","picture": "M3522007-12-27T16_48_28-07_00.jpg"},"geometry": {"type": "Point", "coordinates": [-77.2376666666667,39.79125]}},
{ "type": "Feature", "properties": {"name": "16 VT", "state": "VT","mon_type": "RM", "icon": "4","picture": "M3562007-12-29T14_47_49-07_00.jpg"},"geometry": {"type": "Point", "coordinates": [-77.2365333333333,39.8091666666667]}},
{ "type": "Feature", "properties": {"name": "17 CT", "state": "CT","mon_type": "RM", "icon": "4","picture": "M3572007-08-12T19_21_15-06_00.jpg"},"geometry": {"type": "Point", "coordinates": [-77.2262166666667,39.8454333333333]}},
{ "type": "Feature", "properties": {"name": "17 CT", "state": "CT","mon_type": "RM", "icon": "4","picture": "M3582007-08-24T09_53_07-06_00.jpg"},"geometry": {"type": "Point", "coordinates": [-77.2281,39.82255]}},
{ "type": "Feature", "properties": {"name": "17 ME", "state": "ME","mon_type": "RM", "icon": "4","picture": "M3602007-10-31T15_07_44-06_00.jpg"},"geometry": {"type": "Point", "coordinates": [-77.24465,39.79575]}},
{ "type": "Feature", "properties": {"name": "17 ME", "state": "ME","mon_type": "RM", "icon": "4","picture": "M3612008-01-05T16_10_51-07_00.jpg"},"geometry": {"type": "Point", "coordinates": [-77.2360833333333,39.8079833333333]}},
{ "type": "Feature", "properties": {"name": "17 PA Cavalry", "state": "PA","mon_type": "CM", "icon": "6","picture": "M3642007-08-08T12_55_05-06_00.jpg"},"geometry": {"type": "Point", "coordinates": [-77.2454166666667,39.84735]}},
{ "type": "Feature", "properties": {"name": "17 US Regulars", "state": "US","mon_type": "RM", "icon": "4","picture": "M3672007-07-29T16_49_55-06_00.jpg"},"geometry": {"type": "Point", "coordinates": [-77.2415833333333,39.7945166666667]}},
{ "type": "Feature", "properties": {"name": "18 MA", "state": "MA","mon_type": "RM", "icon": "4","picture": "M3682007-11-14T16_24_33-07_00.jpg"},"geometry": {"type": "Point", "coordinates": [-77.2458833333333,39.7973]}},
{ "type": "Feature", "properties": {"name": "18 PA Cavalry", "state": "PA","mon_type": "CM", "icon": "6","picture": "M3722007-10-22T17_29_36-06_00.jpg"},"geometry": {"type": "Point", "coordinates": [-77.2488166666667,39.7846333333333]}},
{ "type": "Feature", "properties": {"name": "19 IN", "state": "IN","mon_type": "RM", "icon": "4","picture": "M3752007-07-29T15_37_41-06_00.jpg"},"geometry": {"type": "Point", "coordinates": [-77.25415,39.8341666666667]}},
{ "type": "Feature", "properties": {"name": "19 MA", "state": "MA","mon_type": "RM", "icon": "4","picture": "M3762007-12-28T17_23_10-07_00.jpg"},"geometry": {"type": "Point", "coordinates": [-77.23545,39.8115166666667]}},
{ "type": "Feature", "properties": {"name": "19 MA", "state": "MA","mon_type": "RM", "icon": "4","picture": "M3772007-12-24T15_57_10-07_00.jpg"},"geometry": {"type": "Point", "coordinates": [-77.23575,39.8123666666667]}},
{ "type": "Feature", "properties": {"name": "19 ME", "state": "ME","mon_type": "RM", "icon": "4","picture": "M3802007-12-28T17_23_19-07_00.jpg"},"geometry": {"type": "Point", "coordinates": [-77.2361166666667,49.81105]}},
{ "type": "Feature", "properties": {"name": "1A & C OH Cavalry", "state": "OH","mon_type": "CM", "icon": "6","picture": "M3852008-01-05T17_15_33-07_00.jpg"},"geometry": {"type": "Point", "coordinates": [-77.2305166666667,39.8084]}},
{ "type": "Feature", "properties": {"name": "1A MA Artillery", "state": "MA","mon_type": "AM", "icon": "5","picture": "M3862007-08-17T11_42_18-06_00.jpg"},"geometry": {"type": "Point", "coordinates": [-77.23165,39.8177333333333]}},
{ "type": "Feature", "properties": {"name": "1A NC Artillery (Manly)", "state": "NC","mon_type": "AM", "icon": "2","picture": "M3882007-10-19T16_26_10-06_00.jpg"},"geometry": {"type": "Point", "coordinates": [-77.2559166666667,39.79825]}},
{ "type": "Feature", "properties": {"name": "1A NJ Artillery (Hexamer)", "state": "NJ","mon_type": "AM", "icon": "5","picture": "M3892008-01-05T16_11_02-07_00.jpg"},"geometry": {"type": "Point", "coordinates": [-77.2354666666667,39.8074666666667]}},
{ "type": "Feature", "properties": {"name": "1A RI Artillery", "state": "RI","mon_type": "AM", "icon": "5","picture": "M3902007-12-25T16_37_24-07_00.jpg"},"geometry": {"type": "Point", "coordinates": [-77.2354666666667,39.8135666666667]}},
{ "type": "Feature", "properties": {"name": "1ABDH US Sharpshooters (NY)", "state": "US","mon_type": "RM", "icon": "4","picture": "M3912007-10-11T15_34_32-06_00.jpg"},"geometry": {"type": "Point", "coordinates": [-77.2576166666667,39.80805]}},
{ "type": "Feature", "properties": {"name": "1B NJ Artillery", "state": "NJ","mon_type": "AM", "icon": "5","picture": "M3942007-11-14T17_48_47-07_00.jpg"},"geometry": {"type": "Point", "coordinates": [-77.2472333333333,39.8013333333333]}},
{ "type": "Feature", "properties": {"name": "1B NY Artillery", "state": "NY","mon_type": "AM", "icon": "5","picture": "M3962007-12-28T17_23_32-07_00.jpg"},"geometry": {"type": "Point", "coordinates": [-77.2357833333333,39.81065]}},
{ "type": "Feature", "properties": {"name": "1B PA Artillery", "state": "PA","mon_type": "AM", "icon": "5","picture": "NA"},"geometry": {"type": "Point", "coordinates": [-77.2286333333333,39.8215]}},
{ "type": "Feature", "properties": {"name": "1B PA Artillery", "state": "PA","mon_type": "AM", "icon": "5","picture": "M3992007-08-18T19_05_08-06_00.jpg"},"geometry": {"type": "Point", "coordinates": [-77.22865,39.8213666666667]}},
{ "type": "Feature", "properties": {"name": "1B PA Artillery", "state": "PA","mon_type": "AM", "icon": "5","picture": "M4002007-07-29T15_01_02-06_00.jpg"},"geometry": {"type": "Point", "coordinates": [-77.2509333333333,39.8324333333333]}},
{ "type": "Feature", "properties": {"name": "1B PA Artillery (Cooper)", "state": "PA","mon_type": "AM", "icon": "5","picture": "M4012008-01-06T17_27_22-07_00.jpg"},"geometry": {"type": "Point", "coordinates": [-77.2347666666667,39.80615]}},
{ "type": "Feature", "properties": {"name": "1B RI Artillery", "state": "RI","mon_type": "AM", "icon": "5","picture": "M4032007-12-25T16_59_20-07_00.jpg"},"geometry": {"type": "Point", "coordinates": [-77.2353833333333,39.8123316666667]}},
{ "type": "Feature", "properties": {"name": "1B RI Artillery", "state": "RI","mon_type": "AM", "icon": "5","picture": "M4042007-12-25T16_32_02-07_00.jpg"},"geometry": {"type": "Point", "coordinates": [-77.2375,39.8122]}},
{ "type": "Feature", "properties": {"name": "1C & F PA Artillery", "state": "PA","mon_type": "AM", "icon": "5","picture": "M4052008-01-05T16_51_12-07_00.jpg"},"geometry": {"type": "Point", "coordinates": [-77.2355666666667,39.8073333333333]}},
{ "type": "Feature", "properties": {"name": "1C NY Artillery", "state": "NY","mon_type": "AM", "icon": "5","picture": "M4072008-01-06T17_27_31-07_00.jpg"},"geometry": {"type": "Point", "coordinates": [-77.2347333333333,39.7960333333333]}},
{ "type": "Feature", "properties": {"name": "1C PA Artillery", "state": "PA","mon_type": "AM", "icon": "5","picture": "M4102007-12-09T08_21_13-07_00.jpg"},"geometry": {"type": "Point", "coordinates": [-77.2497166666667,39.80145]}},
{ "type": "Feature", "properties": {"name": "1C WV Artillery", "state": "WV","mon_type": "AM", "icon": "5","picture": "M4112007-08-17T11_42_39-06_00.jpg"},"geometry": {"type": "Point", "coordinates": [-77.2316166666667,39.8189333333333]}},
{ "type": "Feature", "properties": {"name": "1CIK 2B US Sharpshooters (MI)", "state": "US","mon_type": "RM", "icon": "4","picture": "M4122007-12-27T16_48_49-07_00.jpg"},"geometry": {"type": "Point", "coordinates": [-77.2377666666667,39.7918666666667]}},
{ "type": "Feature", "properties": {"name": "1D NY Artillery", "state": "NY","mon_type": "AM", "icon": "5","picture": "M4132007-10-24T10_05_26-06_00.jpg"},"geometry": {"type": "Point", "coordinates": [-77.2428666666667,39.7974666666667]}},
{ "type": "Feature", "properties": {"name": "1E & G US Horse Artillery (Chester)", "state": "US","mon_type": "AM", "icon": "5","picture": "NA"},"geometry": {"type": "Point", "coordinates": [-77.1648833333334,39.8213833333333]}},
{ "type": "Feature", "properties": {"name": "1E & G US Horse Artillery (Kinney)", "state": "US","mon_type": "AM", "icon": "5","picture": "NA"},"geometry": {"type": "Point", "coordinates": [-77.16855,39.8191]}},
{ "type": "Feature", "properties": {"name": "1E 2FG US Sharpshooters (NH)", "state": "US","mon_type": "RM", "icon": "4","picture": "M4182008-01-05T16_51_43-07_00.jpg"},"geometry": {"type": "Point", "coordinates": [-77.2361666666667,39.8081]}},
{ "type": "Feature", "properties": {"name": "1E PA Artillery", "state": "PA","mon_type": "AM", "icon": "5","picture": "M4212007-08-26T17_29_19-06_00.jpg"},"geometry": {"type": "Point", "coordinates": [-77.21995,39.8200166666667]}},
{ "type": "Feature", "properties": {"name": "1E RI Artillery", "state": "RI","mon_type": "AM", "icon": "5","picture": "M4242008-01-10T16_45_38-07_00.jpg"},"geometry": {"type": "Point", "coordinates": [-77.2494166666667,39.8023666666667]}},
{ "type": "Feature", "properties": {"name": "1F & G PA Artillery", "state": "PA","mon_type": "AM", "icon": "5","picture": "M4252007-08-18T19_05_25-06_00.jpg"},"geometry": {"type": "Point", "coordinates": [-77.22875,39.82165]}},
{ "type": "Feature", "properties": {"name": "1F PA Artillery", "state": "PA","mon_type": "AM", "icon": "5","picture": "M4282007-12-09T08_21_24-07_00.jpg"},"geometry": {"type": "Point", "coordinates": [-77.24945,39.8013666666667]}},
{ "type": "Feature", "properties": {"name": "1F US Sharpshooters (VT)", "state": "VT","mon_type": "RM", "icon": "4","picture": "M4292007-10-11T15_34_42-06_00.jpg"},"geometry": {"type": "Point", "coordinates": [-77.2571666666667,39.8081333333333]}},
{ "type": "Feature", "properties": {"name": "1G NY Artillery", "state": "NY","mon_type": "AM", "icon": "5","picture": "M4302007-12-09T08_21_36-07_00.jpg"},"geometry": {"type": "Point", "coordinates": [-77.2501333333333,39.8013166666667]}},
{ "type": "Feature", "properties": {"name": "1G NY Artillery", "state": "NY","mon_type": "AM", "icon": "5","picture": "M4312008-01-06T17_27_45-07_00.jpg"},"geometry": {"type": "Point", "coordinates": [-77.23445,39.80275]}},
{ "type": "Feature", "properties": {"name": "1G US Sharpshooters (WI)", "state": "WI","mon_type": "RM", "icon": "4","picture": "M4322008-01-09T15_31_31-07_00.jpg"},"geometry": {"type": "Point", "coordinates": [-77.2444,39.80805]}},
{ "type": "Feature", "properties": {"name": "1H OH Artillery", "state": "OH","mon_type": "AM", "icon": "5","picture": "M4342007-08-17T12_23_30-06_00.jpg"},"geometry": {"type": "Point", "coordinates": [-77.2315666666667,39.81815]}},
{ "type": "Feature", "properties": {"name": "1H PA Cavalry", "state": "PA","mon_type": "CM", "icon": "6","picture": "M4372008-01-06T18_26_35-07_00.jpg"},"geometry": {"type": "Point", "coordinates": [-77.2345833333333,39.7973]}},
{ "type": "Feature", "properties": {"name": "1H US Regulars Artillery", "state": "US","mon_type": "AM", "icon": "5","picture": "M4382007-08-17T12_22_20-06_00.jpg"},"geometry": {"type": "Point", "coordinates": [-77.2312166666667,39.8193333333333]}},
{ "type": "Feature", "properties": {"name": "1I NY Artillery", "state": "NY","mon_type": "AM", "icon": "5","picture": "M4392007-08-18T08_57_06-06_00.jpg"},"geometry": {"type": "Point", "coordinates": [-77.2291333333333,39.8220166666667]}},
{ "type": "Feature", "properties": {"name": "1I OH Artillery", "state": "OH","mon_type": "AM", "icon": "5","picture": "M4402007-08-17T11_43_28-06_00.jpg"},"geometry": {"type": "Point", "coordinates": [-77.2299,39.8210166666667]}},
{ "type": "Feature", "properties": {"name": "1I OH Artillery", "state": "OH","mon_type": "AM", "icon": "5","picture": "M4412007-08-10T16_01_12-06_00.jpg"},"geometry": {"type": "Point", "coordinates": [-77.2338333333333,39.84195]}},
{ "type": "Feature", "properties": {"name": "1I US Regulars Artillery", "state": "US","mon_type": "AM", "icon": "5","picture": "M4442007-12-20T17_02_55-07_00.jpg"},"geometry": {"type": "Point", "coordinates": [-77.2347666666667,39.81625]}},
{ "type": "Feature", "properties": {"name": "1K NY Artillery (11 NY Attached)", "state": "NY","mon_type": "AM", "icon": "5","picture": "M4452007-12-25T16_59_31-07_00.jpg"},"geometry": {"type": "Point", "coordinates": [-77.2353,39.8136333333333]}},
{ "type": "Feature", "properties": {"name": "1K PA Reserves", "state": "MD","mon_type": "RM", "icon": "1","picture": "NA"},"geometry": {"type": "Point", "coordinates": [-77.2312966666667,39.830975]}},
{ "type": "Feature", "properties": {"name": "1L (E Attached) NY Artillery", "state": "NY","mon_type": "AM", "icon": "5","picture": "M4522007-08-18T19_05_44-06_00.jpg"},"geometry": {"type": "Point", "coordinates": [-77.2283166666667,39.8206166666667]}},
{ "type": "Feature", "properties": {"name": "1L NY Artillery", "state": "NY","mon_type": "AM", "icon": "5","picture": "M4532007-08-02T14_59_30-06_00.jpg"},"geometry": {"type": "Point", "coordinates": [-77.2501833333333,39.8346833333333]}},
{ "type": "Feature", "properties": {"name": "1L OH Artillery", "state": "OH","mon_type": "AM", "icon": "5","picture": "M4562008-01-10T16_29_38-07_00.jpg"},"geometry": {"type": "Point", "coordinates": [-77.2351,39.7931833333333]}},
{ "type": "Feature", "properties": {"name": "2 Brigade (Kane\\'s) 2 Div 12 Corps (US)", "state": "OT","mon_type": "BM", "icon": "11","picture": "M4632007-09-03T18_09_24-06_00.jpg"},"geometry": {"type": "Point", "coordinates": [-77.2192166666667,39.8169833333333]}},
{ "type": "Feature", "properties": {"name": "2 Brigade 1 Div 1 Corps (US)", "state": "OT","mon_type": "BM", "icon": "11","picture": "M4642007-08-05T14_09_38-06_00.jpg"},"geometry": {"type": "Point", "coordinates": [-77.2471166666667,39.8392666666667]}},
{ "type": "Feature", "properties": {"name": "2 Brigade 1 Div 11 Corps (US)", "state": "OT","mon_type": "BM", "icon": "11","picture": "M4652007-08-12T19_21_25-06_00.jpg"},"geometry": {"type": "Point", "coordinates": [-77.2271833333333,39.8451166666667]}},
{ "type": "Feature", "properties": {"name": "2 Brigade 1 Div 12 Corps (US)", "state": "OT","mon_type": "BM", "icon": "11","picture": "M4662007-08-28T09_08_04-06_00.jpg"},"geometry": {"type": "Point", "coordinates": [-77.2198166666667,39.8191666666667]}},
{ "type": "Feature", "properties": {"name": "2 Brigade 1 Div 2 Corps (US)", "state": "OT","mon_type": "BM", "icon": "11","picture": "M4672007-11-14T16_24_53-07_00.jpg"},"geometry": {"type": "Point", "coordinates": [-77.2456166666667,39.7974833333333]}},
{ "type": "Feature", "properties": {"name": "2 Brigade 1 Div 3 Corps (US)", "state": "OT","mon_type": "BM", "icon": "11","picture": "M4682007-11-07T08_16_48-07_00.jpg"},"geometry": {"type": "Point", "coordinates": [-77.24285,39.7930333333333]}},
{ "type": "Feature", "properties": {"name": "2 Brigade 1 Div 5 Corps (US)", "state": "OT","mon_type": "BM", "icon": "11","picture": "M4692007-10-31T15_07_57-06_00.jpg"},"geometry": {"type": "Point", "coordinates": [-77.244,39.79605]}},
{ "type": "Feature", "properties": {"name": "2 Brigade 1 Div 6 Corps (US)", "state": "OT","mon_type": "BM", "icon": "11","picture": "M4702008-01-06T18_29_01-07_00.jpg"},"geometry": {"type": "Point", "coordinates": [-77.23635,39.7953666666667]}},
{ "type": "Feature", "properties": {"name": "2 Brigade 1 Div Cavalry (US)", "state": "OT","mon_type": "BM", "icon": "6","picture": "M4712007-08-08T12_55_17-06_00.jpg"},"geometry": {"type": "Point", "coordinates": [-77.2467,39.8451333333333]}},
{ "type": "Feature", "properties": {"name": "2 Brigade 2 Div 1 Corps (US)", "state": "OT","mon_type": "BM", "icon": "11","picture": "M4722007-08-07T16_48_44-06_00.jpg"},"geometry": {"type": "Point", "coordinates": [-77.2423333333333,39.84265]}},
{ "type": "Feature", "properties": {"name": "2 Brigade 2 Div 2 Corps (US)", "state": "OT","mon_type": "BM", "icon": "11","picture": "M4742007-12-25T16_59_44-07_00.jpg"},"geometry": {"type": "Point", "coordinates": [-77.2353833333333,39.81305]}},
{ "type": "Feature", "properties": {"name": "2 Brigade 2 Div 3 Corps (US)", "state": "OT","mon_type": "BM", "icon": "11","picture": "M4752007-11-14T17_46_24-07_00.jpg"},"geometry": {"type": "Point", "coordinates": [-77.2468,39.8027666666667]}},
{ "type": "Feature", "properties": {"name": "2 Brigade 2 Div 5 Corps (US)", "state": "OT","mon_type": "BM", "icon": "11","picture": "M4762007-10-28T17_00_28-06_00.jpg"},"geometry": {"type": "Point", "coordinates": [-77.24135,39.79515]}},
{ "type": "Feature", "properties": {"name": "2 Brigade 2 Div Cavalry (US)", "state": "OT","mon_type": "BM", "icon": "6","picture": "M4782008-01-05T16_11_13-07_00.jpg"},"geometry": {"type": "Point", "coordinates": [-77.23465,39.8082166666667]}},
{ "type": "Feature", "properties": {"name": "2 Brigade 3 Div 11 Corps (US)", "state": "OT","mon_type": "BM", "icon": "11","picture": "M4802007-08-12T12_31_25-06_00.jpg"},"geometry": {"type": "Point", "coordinates": [-77.2290833333333,39.84345]}},
{ "type": "Feature", "properties": {"name": "2 Brigade 3 Div 2 Corps (US)", "state": "OT","mon_type": "BM", "icon": "11","picture": "M4812007-12-21T15_00_15-07_00.jpg"},"geometry": {"type": "Point", "coordinates": [-77.23525,39.8141]}},
{ "type": "Feature", "properties": {"name": "2 Brigade 3 Div 6 Corps (US)", "state": "OT","mon_type": "BM", "icon": "11","picture": "M4822008-01-06T17_27_58-07_00.jpg"},"geometry": {"type": "Point", "coordinates": [-77.2341833333333,39.7964333333333]}},
{ "type": "Feature", "properties": {"name": "2 Brigade Cavalry Corps Horse Artillery (Tidball)", "state": "OT","mon_type": "AM", "icon": "5","picture": "NA"},"geometry": {"type": "Point", "coordinates": [-77.1664833333333,39.8202833333333]}},
{ "type": "Feature", "properties": {"name": "2 Brigade Volunteer Reserve Artillery (US)", "state": "OT","mon_type": "AM", "icon": "5","picture": "M4852007-08-18T18_40_16-06_00.jpg"},"geometry": {"type": "Point", "coordinates": [-77.2289666666667,39.8204666666667]}},
{ "type": "Feature", "properties": {"name": "2 Corps (CSA)", "state": "OT","mon_type": "CM", "icon": "9","picture": "M4862007-08-08T13_46_06-06_00.jpg"},"geometry": {"type": "Point", "coordinates": [-77.24535,39.8477166666667]}},
{ "type": "Feature", "properties": {"name": "2 Corps (US)", "state": "OT","mon_type": "CM", "icon": "12","picture": "M4872007-12-21T15_20_04-07_00.jpg"},"geometry": {"type": "Point", "coordinates": [-77.2352166666667,39.8144833333333]}},
{ "type": "Feature", "properties": {"name": "2 Corps HQ (Hancock)", "state": "US","mon_type": "HQ", "icon": "12","picture": "M332008-01-05T16_09_53-07_00.jpg"},"geometry": {"type": "Point", "coordinates": [-77.2349166666667,39.8081666666667]}},
{ "type": "Feature", "properties": {"name": "2 DE", "state": "DE","mon_type": "RM", "icon": "4","picture": "M4922007-12-21T15_12_36-07_00.jpg"},"geometry": {"type": "Point", "coordinates": [-77.2354666666667,39.8147333333333]}},
{ "type": "Feature", "properties": {"name": "2 DE", "state": "DE","mon_type": "RM", "icon": "4","picture": "M4912007-10-31T15_08_06-06_00.jpg"},"geometry": {"type": "Point", "coordinates": [-77.2470333333333,39.7947333333333]}},
{ "type": "Feature", "properties": {"name": "2 Div 1 Corps (US)", "state": "OT","mon_type": "DM", "icon": "10","picture": "M4932007-08-05T15_42_01-06_00.jpg"},"geometry": {"type": "Point", "coordinates": [-77.2412166666667,39.8425833333333]}},
{ "type": "Feature", "properties": {"name": "2 Div 11 Corps (US)", "state": "OT","mon_type": "DM", "icon": "10","picture": "M4942007-08-18T08_13_43-06_00.jpg"},"geometry": {"type": "Point", "coordinates": [-77.2298333333333,39.82175]}},
{ "type": "Feature", "properties": {"name": "2 Div 12 Corps (US)", "state": "OT","mon_type": "DM", "icon": "10","picture": "M4952007-09-03T18_09_36-06_00.jpg"},"geometry": {"type": "Point", "coordinates": [-77.2198833333333,39.8174166666667]}},
{ "type": "Feature", "properties": {"name": "2 Div 2 Corps (US)", "state": "OT","mon_type": "DM", "icon": "10","picture": "M4962007-12-28T17_23_51-07_00.jpg"},"geometry": {"type": "Point", "coordinates": [-77.2357,39.8104166666667]}},
{ "type": "Feature", "properties": {"name": "2 Div 3 Corps (US)", "state": "OT","mon_type": "DM", "icon": "10","picture": "M4972007-12-09T08_21_49-07_00.jpg"},"geometry": {"type": "Point", "coordinates": [-77.2499333333333,39.80145]}},
{ "type": "Feature", "properties": {"name": "2 Div 3 Corps (US)", "state": "OT","mon_type": "DM", "icon": "10","picture": "M4982008-01-09T14_58_56-07_00.jpg"},"geometry": {"type": "Point", "coordinates": [-77.2445,39.8071333333333]}},
{ "type": "Feature", "properties": {"name": "2 Div 5 Corps (US)", "state": "OT","mon_type": "DM", "icon": "10","picture": "M4992007-10-28T18_03_55-06_00.jpg"},"geometry": {"type": "Point", "coordinates": [-77.2398333333333,39.7953666666667]}},
{ "type": "Feature", "properties": {"name": "2 July  ANV Itinerary Tablet", "state": "OT","mon_type": "IT", "icon": "17","picture": "M13562007-09-06T15_49_29-06_00.jpg"},"geometry": {"type": "Point", "coordinates": [-77.2447666666667,39.82725]}},
{ "type": "Feature", "properties": {"name": "2 MA", "state": "MA","mon_type": "RM", "icon": "4","picture": "M5032007-07-26T12_52_53-06_00.jpg"},"geometry": {"type": "Point", "coordinates": [-77.2162833333334,39.8133833333333]}},
{ "type": "Feature", "properties": {"name": "2 MD (1 MD CSA)", "state": "MD","mon_type": "RM", "icon": "1","picture": "M5062007-09-02T09_36_26-06_00.jpg"},"geometry": {"type": "Point", "coordinates": [-77.2182333333333,39.8167]}},
{ "type": "Feature", "properties": {"name": "2 MD (1 MD CSA)", "state": "MD","mon_type": "RM", "icon": "1","picture": "M5072007-09-02T09_36_36-06_00.jpg"},"geometry": {"type": "Point", "coordinates": [-77.2194666666667,39.81645]}},
{ "type": "Feature", "properties": {"name": "2 NH", "state": "NH","mon_type": "RM", "icon": "4","picture": "M5102007-11-19T16_31_34-07_00.jpg"},"geometry": {"type": "Point", "coordinates": [-77.25035,39.8005666666667]}},
{ "type": "Feature", "properties": {"name": "2 NJ RF/15 NJ RF", "state": "NJ","mon_type": "RM", "icon": "4","picture": "NA"},"geometry": {"type": "Point", "coordinates": [-77.23345,39.8011666666667]}},
{ "type": "Feature", "properties": {"name": "2 NY Cavalry", "state": "NY","mon_type": "CM", "icon": "6","picture": "M5142008-01-05T16_11_25-07_00.jpg"},"geometry": {"type": "Point", "coordinates": [-77.2345833333333,39.8087833333333]}},
{ "type": "Feature", "properties": {"name": "2 PA Cavalry", "state": "PA","mon_type": "CM", "icon": "6","picture": "M5152007-12-22T17_29_01-07_00.jpg"},"geometry": {"type": "Point", "coordinates": [-77.2336166666667,39.8143333333333]}},
{ "type": "Feature", "properties": {"name": "2 PA Reserves", "state": "PA","mon_type": "RM", "icon": "4","picture": "M5162007-10-24T09_49_09-06_00.jpg"},"geometry": {"type": "Point", "coordinates": [-77.2411833333333,39.7962833333333]}},
{ "type": "Feature", "properties": {"name": "2 RI", "state": "RI","mon_type": "RM", "icon": "4","picture": "M5202007-12-09T13_43_23-07_00.jpg"},"geometry": {"type": "Point", "coordinates": [-77.2341166666667,39.7956333333333]}},
{ "type": "Feature", "properties": {"name": "2 Richmond VA Artillery (Watson) (July 3-4)", "state": "VA","mon_type": "AM", "icon": "2","picture": "M5222007-09-06T14_46_31-06_00.jpg"},"geometry": {"type": "Point", "coordinates": [-77.2447,39.8268333333333]}},
{ "type": "Feature", "properties": {"name": "2 US Regulars", "state": "US","mon_type": "RM", "icon": "4","picture": "M5242007-10-28T17_33_04-06_00.jpg"},"geometry": {"type": "Point", "coordinates": [-77.2413666666667,39.79545]}},
{ "type": "Feature", "properties": {"name": "2 US Sharpshooters (MA)", "state": "MA","mon_type": "RM", "icon": "4","picture": "M5262007-11-08T09_12_53-07_00.jpg"},"geometry": {"type": "Point", "coordinates": [-77.2463333333333,39.79705]}},
{ "type": "Feature", "properties": {"name": "2 WI", "state": "WI","mon_type": "RM", "icon": "4","picture": "M5272007-07-29T15_38_01-06_00.jpg"},"geometry": {"type": "Point", "coordinates": [-77.2541,39.8355]}},
{ "type": "Feature", "properties": {"name": "20 CT", "state": "CT","mon_type": "RM", "icon": "4","picture": "M5322007-08-28T08_52_29-06_00.jpg"},"geometry": {"type": "Point", "coordinates": [-77.2176833333333,39.8158333333333]}},
{ "type": "Feature", "properties": {"name": "20 IN", "state": "IN","mon_type": "RM", "icon": "4","picture": "M5332007-10-31T15_08_17-06_00.jpg"},"geometry": {"type": "Point", "coordinates": [-77.2426833333333,39.79485]}},
{ "type": "Feature", "properties": {"name": "20 MA", "state": "MA","mon_type": "RM", "icon": "4","picture": "M5342007-12-28T17_24_01-07_00.jpg"},"geometry": {"type": "Point", "coordinates": [-77.2361666666667,39.8114666666667]}},
{ "type": "Feature", "properties": {"name": "20 MA", "state": "MA","mon_type": "RM", "icon": "4","picture": "M5352007-12-24T15_57_39-07_00.jpg"},"geometry": {"type": "Point", "coordinates": [-77.2360166666667,39.8123333333333]}},
{ "type": "Feature", "properties": {"name": "20 ME", "state": "ME","mon_type": "RM", "icon": "4","picture": "M5392007-10-24T08_51_10-06_00.jpg"},"geometry": {"type": "Point", "coordinates": [-77.2362166666667,39.7895333333333]}},
{ "type": "Feature", "properties": {"name": "20 ME (Company B)", "state": "ME","mon_type": "RM", "icon": "4","picture": "M5402007-10-24T08_57_03-06_00.jpg"},"geometry": {"type": "Point", "coordinates": [-77.2348166666667,39.7886666666667]}},
{ "type": "Feature", "properties": {"name": "21 PA Cavalry", "state": "PA","mon_type": "CM", "icon": "6","picture": "NA"},"geometry": {"type": "Point", "coordinates": [-77.2183,39.8089166666667]}},
{ "type": "Feature", "properties": {"name": "21 PA Cavalry/Sandoe Killed", "state": "PA","mon_type": "CM", "icon": "6","picture": "NA"},"geometry": {"type": "Point", "coordinates": [-77.21865,39.8091333333333]}},
{ "type": "Feature", "properties": {"name": "22 MA", "state": "MA","mon_type": "RM", "icon": "4","picture": "M5472007-11-14T16_25_56-07_00.jpg"},"geometry": {"type": "Point", "coordinates": [-77.24635,39.7971]}},
{ "type": "Feature", "properties": {"name": "23 PA", "state": "PA","mon_type": "RM", "icon": "4","picture": "M5512007-09-03T18_09_50-06_00.jpg"},"geometry": {"type": "Point", "coordinates": [-77.2197666666667,39.8175666666667]}},
{ "type": "Feature", "properties": {"name": "24 MI", "state": "MI","mon_type": "RM", "icon": "4","picture": "M5542007-08-24T11_22_06-06_00.jpg"},"geometry": {"type": "Point", "coordinates": [-77.2240833333333,39.8195]}},
{ "type": "Feature", "properties": {"name": "24 MI", "state": "MI","mon_type": "RM", "icon": "4","picture": "M5552007-07-29T15_38_18-06_00.jpg"},"geometry": {"type": "Point", "coordinates": [-77.25445,39.83495]}},
{ "type": "Feature", "properties": {"name": "25 & 75 OH", "state": "OH","mon_type": "RM", "icon": "4","picture": "M5572007-08-24T09_53_18-06_00.jpg"},"geometry": {"type": "Point", "coordinates": [-77.22855,39.8231666666667]}},
{ "type": "Feature", "properties": {"name": "25 & 75 OH", "state": "OH","mon_type": "RM", "icon": "4","picture": "M5562007-08-12T19_21_35-06_00.jpg"},"geometry": {"type": "Point", "coordinates": [-77.2266833333333,39.8453166666667]}},
{ "type": "Feature", "properties": {"name": "26 June ANV Itinerary Tablet", "state": "OT","mon_type": "IT", "icon": "17","picture": "M13502007-09-06T15_48_18-06_00.jpg"},"geometry": {"type": "Point", "coordinates": [-77.2447333333333,39.8273666666667]}},
{ "type": "Feature", "properties": {"name": "26 NC", "state": "NC","mon_type": "RM", "icon": "1","picture": "M5602007-12-24T15_57_50-07_00.jpg"},"geometry": {"type": "Point", "coordinates": [-77.2356666666667,39.8136166666667]}},
{ "type": "Feature", "properties": {"name": "26 NC", "state": "NC","mon_type": "RM", "icon": "1","picture": "M5612007-07-29T15_38_33-06_00.jpg"},"geometry": {"type": "Point", "coordinates": [-77.25455,39.83465]}},
{ "type": "Feature", "properties": {"name": "26 PA", "state": "PA","mon_type": "RM", "icon": "4","picture": "M5622008-01-09T15_31_41-07_00.jpg"},"geometry": {"type": "Point", "coordinates": [-77.2429666666667,39.8089833333333]}},
{ "type": "Feature", "properties": {"name": "26 WI", "state": "WI","mon_type": "RM", "icon": "4","picture": "M5672007-08-12T12_31_34-06_00.jpg"},"geometry": {"type": "Point", "coordinates": [-77.22925,39.8434]}},
{ "type": "Feature", "properties": {"name": "27 CT", "state": "CT","mon_type": "RM", "icon": "4","picture": "M5702007-10-31T15_08_26-06_00.jpg"},"geometry": {"type": "Point", "coordinates": [-77.2471,39.7953333333333]}},
{ "type": "Feature", "properties": {"name": "27 CT", "state": "CT","mon_type": "RM", "icon": "4","picture": "M5712007-10-24T10_07_06-06_00.jpg"},"geometry": {"type": "Point", "coordinates": [-77.2415333333333,39.7970333333333]}},
{ "type": "Feature", "properties": {"name": "27 IN", "state": "IN","mon_type": "RM", "icon": "4","picture": "M5742007-07-26T12_36_44-06_00.jpg"},"geometry": {"type": "Point", "coordinates": [-77.2159833333333,39.8143]}},
{ "type": "Feature", "properties": {"name": "27 IN", "state": "IN","mon_type": "RM", "icon": "4","picture": "M5732007-07-26T12_39_01-06_00.jpg"},"geometry": {"type": "Point", "coordinates": [-77.2158833333333,39.81355]}},
{ "type": "Feature", "properties": {"name": "27 June ANV Itinerary Tablet", "state": "OT","mon_type": "IT", "icon": "17","picture": "M13512007-09-06T15_52_43-06_00.jpg"},"geometry": {"type": "Point", "coordinates": [-77.2447666666667,39.82735]}},
{ "type": "Feature", "properties": {"name": "27 PA", "state": "PA","mon_type": "RM", "icon": "4","picture": "M5772007-08-18T08_13_53-06_00.jpg"},"geometry": {"type": "Point", "coordinates": [-77.2297,39.8221333333333]}},
{ "type": "Feature", "properties": {"name": "27 PA", "state": "PA","mon_type": "RM", "icon": "4","picture": "M5782007-08-14T06_30_37-06_00.jpg"},"geometry": {"type": "Point", "coordinates": [-77.22805,39.8351166666667]}},
{ "type": "Feature", "properties": {"name": "28 June ANV Itinerary Tablet", "state": "OT","mon_type": "IT", "icon": "17","picture": "M13522007-09-06T15_48_45-06_00.jpg"},"geometry": {"type": "Point", "coordinates": [-77.2447833333333,39.8273166666667]}},
{ "type": "Feature", "properties": {"name": "28 MA", "state": "MA","mon_type": "RM", "icon": "4","picture": "M5812007-11-14T16_26_04-07_00.jpg"},"geometry": {"type": "Point", "coordinates": [-77.2456,39.7974]}},
{ "type": "Feature", "properties": {"name": "28 PA", "state": "PA","mon_type": "RM", "icon": "4","picture": "M5852007-08-27T17_28_20-06_00.jpg"},"geometry": {"type": "Point", "coordinates": [-77.2198166666667,39.8187666666667]}},
{ "type": "Feature", "properties": {"name": "28 PA", "state": "PA","mon_type": "RM", "icon": "4","picture": "M5842007-08-26T08_23_16-06_00.jpg"},"geometry": {"type": "Point", "coordinates": [-77.2146166666667,39.8166833333333]}},
{ "type": "Feature", "properties": {"name": "29 June ANV Itinerary Tablet", "state": "OT","mon_type": "IT", "icon": "17","picture": "M13532007-09-06T15_48_53-06_00.jpg"},"geometry": {"type": "Point", "coordinates": [-77.2447666666667,39.8273]}},
{ "type": "Feature", "properties": {"name": "29 OH", "state": "OH","mon_type": "RM", "icon": "4","picture": "M5912007-09-03T18_09_59-06_00.jpg"},"geometry": {"type": "Point", "coordinates": [-77.2195,39.81755]}},
{ "type": "Feature", "properties": {"name": "29 PA", "state": "PA","mon_type": "RM", "icon": "4","picture": "M5952007-09-02T09_36_46-06_00.jpg"},"geometry": {"type": "Point", "coordinates": [-77.2183833333333,39.8166333333333]}},
{ "type": "Feature", "properties": {"name": "2A US Horse Artillery (Calef)", "state": "US","mon_type": "AM", "icon": "5","picture": "M6002007-07-29T15_21_46-06_00.jpg"},"geometry": {"type": "Point", "coordinates": [-77.2515333333333,39.8376333333333]}},
{ "type": "Feature", "properties": {"name": "2B & L US Horse Artillery", "state": "US","mon_type": "AM", "icon": "5","picture": "M6032008-01-05T16_52_16-07_00.jpg"},"geometry": {"type": "Point", "coordinates": [-77.2309166666667,39.8078333333333]}},
{ "type": "Feature", "properties": {"name": "2B ME Artillery", "state": "ME","mon_type": "AM", "icon": "5","picture": "M6042007-08-03T07_43_25-06_00.jpg"},"geometry": {"type": "Point", "coordinates": [-77.2514833333333,39.8378833333333]}},
{ "type": "Feature", "properties": {"name": "2B ME Artillery", "state": "ME","mon_type": "AM", "icon": "5","picture": "M6052007-08-17T11_43_38-06_00.jpg"},"geometry": {"type": "Point", "coordinates": [-77.2317166666667,39.8174333333333]}},
{ "type": "Feature", "properties": {"name": "2B NJ Artillery (Clark)", "state": "NJ","mon_type": "AM", "icon": "5","picture": "M3952008-01-06T18_21_29-07_00.jpg"},"geometry": {"type": "Point", "coordinates": [-77.2346666666667,39.80435]}},
{ "type": "Feature", "properties": {"name": "2G US Regulars Artillery", "state": "US","mon_type": "AM", "icon": "5","picture": "M6122007-12-20T17_03_10-07_00.jpg"},"geometry": {"type": "Point", "coordinates": [-77.2341166666667,39.8165]}},
{ "type": "Feature", "properties": {"name": "2M US Horse Artillery", "state": "US","mon_type": "AM", "icon": "5","picture": "NA"},"geometry": {"type": "Point", "coordinates": [-77.1693333333333,39.81835]}},
{ "type": "Feature", "properties": {"name": "3  Brigade 3 Div 2 Corps (US)", "state": "US","mon_type": "BM", "icon": "11","picture": "M6142007-12-20T17_43_22-07_00.jpg"},"geometry": {"type": "Point", "coordinates": [-77.2352166666667,39.8153]}},
{ "type": "Feature", "properties": {"name": "3 Brigade 1 Div 12 Corps (US)", "state": "US","mon_type": "BM", "icon": "11","picture": "M6152007-09-03T18_10_16-06_00.jpg"},"geometry": {"type": "Point", "coordinates": [-77.2154,39.81325]}},
{ "type": "Feature", "properties": {"name": "3 Brigade 1 Div 2 Corps (US)", "state": "US","mon_type": "BM", "icon": "11","picture": "M6162007-11-08T09_13_18-07_00.jpg"},"geometry": {"type": "Point", "coordinates": [-77.2451,39.7972833333333]}},
{ "type": "Feature", "properties": {"name": "3 Brigade 1 Div 3 Corps (US)", "state": "US","mon_type": "BM", "icon": "11","picture": "M6172007-11-08T09_13_28-07_00.jpg"},"geometry": {"type": "Point", "coordinates": [-77.2441333333333,39.7965666666667]}},
{ "type": "Feature", "properties": {"name": "3 Brigade 1 Div 5 Corps (US)", "state": "US","mon_type": "BM", "icon": "11","picture": "M6182007-12-27T16_49_14-07_00.jpg"},"geometry": {"type": "Point", "coordinates": [-77.2366666666667,39.7908333333333]}},
{ "type": "Feature", "properties": {"name": "3 Brigade 2 Div 12 Corps (US)", "state": "US","mon_type": "BM", "icon": "11","picture": "M6202007-08-27T17_28_30-06_00.jpg"},"geometry": {"type": "Point", "coordinates": [-77.2195833333333,39.8182833333333]}},
{ "type": "Feature", "properties": {"name": "3 Brigade 2 Div 2 Corps (US)", "state": "US","mon_type": "BM", "icon": "11","picture": "M6212007-12-25T16_59_55-07_00.jpg"},"geometry": {"type": "Point", "coordinates": [-77.2354,39.8118166666667]}},
{ "type": "Feature", "properties": {"name": "3 Brigade 2 Div 3 Corps (US)", "state": "US","mon_type": "BM", "icon": "11","picture": "M6222007-10-31T15_08_39-06_00.jpg"},"geometry": {"type": "Point", "coordinates": [-77.2453833333333,39.7960166666667]}},
{ "type": "Feature", "properties": {"name": "3 Brigade 2 Div 5 Corps (US)", "state": "US","mon_type": "BM", "icon": "11","picture": "M6232007-12-27T16_49_23-07_00.jpg"},"geometry": {"type": "Point", "coordinates": [-77.2363166666667,39.7922]}},
{ "type": "Feature", "properties": {"name": "3 Brigade 2 Div 6 Corps (US)", "state": "US","mon_type": "BM", "icon": "11","picture": "NA"},"geometry": {"type": "Point", "coordinates": [-77.2096666666667,39.80805]}},
{ "type": "Feature", "properties": {"name": "3 Brigade 3 Div 1 Corps (US)", "state": "US","mon_type": "BM", "icon": "11","picture": "M6262007-12-29T14_47_58-07_00.jpg"},"geometry": {"type": "Point", "coordinates": [-77.2365333333333,39.8093]}},
{ "type": "Feature", "properties": {"name": "3 Brigade 3 Div 5 Corps (US)", "state": "US","mon_type": "BM", "icon": "11","picture": "M6272007-10-22T18_00_32-06_00.jpg"},"geometry": {"type": "Point", "coordinates": [-77.23775,39.78855]}},
{ "type": "Feature", "properties": {"name": "3 Brigade 3 Div 6 Corps (US)", "state": "US","mon_type": "BM", "icon": "11","picture": "M6282008-01-08T15_34_56-07_00.jpg"},"geometry": {"type": "Point", "coordinates": [-77.2378333333333,39.79675]}},
{ "type": "Feature", "properties": {"name": "3 Brigade Volunteer Reserve Artillery (US)", "state": "US","mon_type": "AM", "icon": "5","picture": "M6292007-08-17T11_52_19-06_00.jpg"},"geometry": {"type": "Point", "coordinates": [-77.2317,39.8185166666667]}},
{ "type": "Feature", "properties": {"name": "3 Corps (CSA)", "state": "OT","mon_type": "CM", "icon": "9","picture": "M6302007-09-23T09_32_21-06_00.jpg"},"geometry": {"type": "Point", "coordinates": [-77.2470333333333,39.8196666666667]}},
{ "type": "Feature", "properties": {"name": "3 Corps (US)", "state": "US","mon_type": "CM", "icon": "12","picture": "M6312007-12-09T08_22_00-07_00.jpg"},"geometry": {"type": "Point", "coordinates": [-77.25,39.8014666666667]}},
{ "type": "Feature", "properties": {"name": "3 Corps HQ (SICKLES)", "state": "US","mon_type": "HQ", "icon": "12","picture": "M6332008-01-08T16_20_18-07_00.jpg"},"geometry": {"type": "Point", "coordinates": [-77.243,39.8018333333333]}},
{ "type": "Feature", "properties": {"name": "3 Div 1 Corps (US)", "state": "US","mon_type": "DM", "icon": "10","picture": "M6342007-08-02T14_59_42-06_00.jpg"},"geometry": {"type": "Point", "coordinates": [-77.2504166666667,39.8340833333333]}},
{ "type": "Feature", "properties": {"name": "3 Div 11 Corps (US)", "state": "US","mon_type": "DM", "icon": "10","picture": "M6352007-08-10T16_01_24-06_00.jpg"},"geometry": {"type": "Point", "coordinates": [-77.2343833333333,39.841]}},
{ "type": "Feature", "properties": {"name": "3 Div 2 Corps (US)", "state": "US","mon_type": "DM", "icon": "10","picture": "M6362007-12-20T17_43_32-07_00.jpg"},"geometry": {"type": "Point", "coordinates": [-77.2352333333333,39.81515]}},
{ "type": "Feature", "properties": {"name": "3 Div 5 Corps (US)", "state": "US","mon_type": "DM", "icon": "10","picture": "M6372007-11-07T08_17_03-07_00.jpg"},"geometry": {"type": "Point", "coordinates": [-77.2388166666667,39.7957333333333]}},
{ "type": "Feature", "properties": {"name": "3 Div 6 Corps (US)", "state": "US","mon_type": "DM", "icon": "10","picture": "NA"},"geometry": {"type": "Point", "coordinates": [-77.23435,39.8009833333333]}},
{ "type": "Feature", "properties": {"name": "3 Div Cavalry Corps (US)", "state": "US","mon_type": "DM", "icon": "6","picture": "M6392007-10-22T17_29_47-06_00.jpg"},"geometry": {"type": "Point", "coordinates": [-77.2496666666667,39.7845666666667]}},
{ "type": "Feature", "properties": {"name": "3 IN Cavalry", "state": "IN","mon_type": "CM", "icon": "6","picture": "M6402007-08-05T14_12_54-06_00.jpg"},"geometry": {"type": "Point", "coordinates": [-77.2478333333333,39.8379]}},
{ "type": "Feature", "properties": {"name": "3 July  ANV Itinerary Tablet", "state": "OT","mon_type": "IT", "icon": "17","picture": "M13572007-09-06T15_49_38-06_00.jpg"},"geometry": {"type": "Point", "coordinates": [-77.2447666666667,39.8272333333333]}},
{ "type": "Feature", "properties": {"name": "3 MA Artillery", "state": "MA","mon_type": "AM", "icon": "5","picture": "M6432008-01-08T15_35_05-07_00.jpg"},"geometry": {"type": "Point", "coordinates": [-77.2380666666667,39.7966833333333]}},
{ "type": "Feature", "properties": {"name": "3 MD", "state": "MD","mon_type": "RM", "icon": "4","picture": "M6442007-08-28T08_48_12-06_00.jpg"},"geometry": {"type": "Point", "coordinates": [-77.21755,39.8156833333333]}},
{ "type": "Feature", "properties": {"name": "3 ME", "state": "ME","mon_type": "RM", "icon": "4","picture": "M6472007-10-11T15_41_15-06_00.jpg"},"geometry": {"type": "Point", "coordinates": [-77.2573666666667,39.808]}},
{ "type": "Feature", "properties": {"name": "3 ME", "state": "ME","mon_type": "RM", "icon": "4","picture": "M6482007-12-25T17_00_05-07_00.jpg"},"geometry": {"type": "Point", "coordinates": [-77.2352833333333,39.8127833333333]}},
{ "type": "Feature", "properties": {"name": "3 ME", "state": "ME","mon_type": "RM", "icon": "4","picture": "M6492007-11-19T16_33_35-07_00.jpg"},"geometry": {"type": "Point", "coordinates": [-77.2501333333333,39.80045]}},
{ "type": "Feature", "properties": {"name": "3 MI", "state": "MI","mon_type": "RM", "icon": "4","picture": "M6522007-11-19T16_35_09-07_00.jpg"},"geometry": {"type": "Point", "coordinates": [-77.2492833333333,39.8001333333333]}},
{ "type": "Feature", "properties": {"name": "3 PA Cavalry/RF Army of Potomac", "state": "PA","mon_type": "CM", "icon": "6","picture": "NA"},"geometry": {"type": "Point", "coordinates": [-77.1581,39.8286333333333]}},
{ "type": "Feature", "properties": {"name": "3 Richmond VA Artillery (Smith)", "state": "VA","mon_type": "AM", "icon": "2","picture": "NA"},"geometry": {"type": "Point", "coordinates": [-77.2444,39.8306666666667]}},
{ "type": "Feature", "properties": {"name": "3 US Regulars", "state": "US","mon_type": "RM", "icon": "4","picture": "M6652007-07-29T16_48_36-06_00.jpg"},"geometry": {"type": "Point", "coordinates": [-77.2408,39.7951833333333]}},
{ "type": "Feature", "properties": {"name": "3 WI", "state": "WI","mon_type": "RM", "icon": "4","picture": "M6662007-09-03T18_10_35-06_00.jpg"},"geometry": {"type": "Point", "coordinates": [-77.2159333333333,39.8126]}},
{ "type": "Feature", "properties": {"name": "3 WV Cavalry", "state": "WV","mon_type": "CM", "icon": "6","picture": "M6692007-08-08T12_55_28-06_00.jpg"},"geometry": {"type": "Point", "coordinates": [-77.2479,39.8435833333333]}},
{ "type": "Feature", "properties": {"name": "30 June ANV Itinerary Tablet", "state": "OT","mon_type": "IT", "icon": "17","picture": "M13542007-09-06T15_49_06-06_00.jpg"},"geometry": {"type": "Point", "coordinates": [-77.2447833333333,39.8272833333333]}},
{ "type": "Feature", "properties": {"name": "32 MA", "state": "MA","mon_type": "RM", "icon": "4","picture": "M6732007-11-08T09_13_37-07_00.jpg"},"geometry": {"type": "Point", "coordinates": [-77.2459,39.7969166666667]}},
{ "type": "Feature", "properties": {"name": "32MA  (Hospital Marker)", "state": "MA","mon_type": "HM", "icon": "15","picture": "M6772007-11-08T09_13_48-07_00.jpg"},"geometry": {"type": "Point", "coordinates": [-77.2449333333333,39.7972333333333]}},
{ "type": "Feature", "properties": {"name": "33 MA", "state": "MA","mon_type": "RM", "icon": "4","picture": "M6782007-08-27T17_21_08-06_00.jpg"},"geometry": {"type": "Point", "coordinates": [-77.2261333333333,39.8199]}},
{ "type": "Feature", "properties": {"name": "33 MA", "state": "MA","mon_type": "RM", "icon": "4","picture": "NA"},"geometry": {"type": "Point", "coordinates": [-77.2276,39.8208833333333]}},
{ "type": "Feature", "properties": {"name": "37 MA", "state": "MA","mon_type": "RM", "icon": "4","picture": "M6822008-01-06T17_28_18-07_00.jpg"},"geometry": {"type": "Point", "coordinates": [-77.2342333333333,39.7969666666667]}},
{ "type": "Feature", "properties": {"name": "39 NY", "state": "NY","mon_type": "RM", "icon": "4","picture": "M6862007-12-21T15_20_14-07_00.jpg"},"geometry": {"type": "Point", "coordinates": [-77.23525,39.8141833333333]}},
{ "type": "Feature", "properties": {"name": "3F & K US Regulars Artillery", "state": "US","mon_type": "AM", "icon": "5","picture": "M6912007-12-21T15_20_32-07_00.jpg"},"geometry": {"type": "Point", "coordinates": [-77.2346333333333,39.8142666666667]}},
{ "type": "Feature", "properties": {"name": "3F & K US Regulars Artillery", "state": "US","mon_type": "AM", "icon": "5","picture": "M6922008-01-09T15_31_51-07_00.jpg"},"geometry": {"type": "Point", "coordinates": [-77.2445666666667,39.8076333333333]}},
{ "type": "Feature", "properties": {"name": "3H PA Artillery (Rank)", "state": "PA","mon_type": "AM", "icon": "5","picture": "M6942008-01-06T17_28_30-07_00.jpg"},"geometry": {"type": "Point", "coordinates": [-77.2347166666667,39.8047666666667]}},
{ "type": "Feature", "properties": {"name": "4 AL", "state": "AL","mon_type": "RM", "icon": "1","picture": "M6972007-10-26T16_17_50-06_00.jpg"},"geometry": {"type": "Point", "coordinates": [-77.25415,39.7871833333333]}},
{ "type": "Feature", "properties": {"name": "4 Brigade 1 Div 2 Corps (US)", "state": "US","mon_type": "BM", "icon": "11","picture": "M6982007-10-31T15_08_48-06_00.jpg"},"geometry": {"type": "Point", "coordinates": [-77.2469666666667,39.7950666666667]}},
{ "type": "Feature", "properties": {"name": "4 Brigade Volunteer Reserve Artillery (US)", "state": "US","mon_type": "AM", "icon": "5","picture": "M6992007-12-25T17_00_14-07_00.jpg"},"geometry": {"type": "Point", "coordinates": [-77.2353,39.8135333333333]}},
{ "type": "Feature", "properties": {"name": "4 July  ANV Itinerary Tablet", "state": "OT","mon_type": "IT", "icon": "17","picture": "M13582007-09-06T15_49_47-06_00.jpg"},"geometry": {"type": "Point", "coordinates": [-77.2448,39.8272166666667]}},
{ "type": "Feature", "properties": {"name": "4 ME", "state": "ME","mon_type": "RM", "icon": "4","picture": "M7012007-11-07T08_17_15-07_00.jpg"},"geometry": {"type": "Point", "coordinates": [-77.2414333333333,39.7918833333333]}},
{ "type": "Feature", "properties": {"name": "4 ME", "state": "ME","mon_type": "RM", "icon": "4","picture": "M7022007-12-25T17_00_23-07_00.jpg"},"geometry": {"type": "Point", "coordinates": [-77.2353,39.8125]}},
{ "type": "Feature", "properties": {"name": "4 MI", "state": "MI","mon_type": "RM", "icon": "4","picture": "M7062007-10-31T15_08_59-06_00.jpg"},"geometry": {"type": "Point", "coordinates": [-77.2438833333333,39.7962166666667]}},
{ "type": "Feature", "properties": {"name": "4 NY Artillery", "state": "NY","mon_type": "AM", "icon": "5","picture": "M7112007-11-07T09_25_53-07_00.jpg"},"geometry": {"type": "Point", "coordinates": [-77.2425333333333,39.7920166666667]}},
{ "type": "Feature", "properties": {"name": "4 NY Artillery", "state": "NY","mon_type": "AM", "icon": "5","picture": "M7102007-11-07T08_12_24-07_00.jpg"},"geometry": {"type": "Point", "coordinates": [-77.2397833333333,39.79435]}},
{ "type": "Feature", "properties": {"name": "4 NY Cavalry", "state": "NY","mon_type": "CM", "icon": "6","picture": "M7142008-01-05T16_11_34-07_00.jpg"},"geometry": {"type": "Point", "coordinates": [-77.2346,39.80855]}},
{ "type": "Feature", "properties": {"name": "4 OH", "state": "OH","mon_type": "RM", "icon": "4","picture": "M7152007-08-18T19_06_00-06_00.jpg"},"geometry": {"type": "Point", "coordinates": [-77.22875,39.8209833333333]}},
{ "type": "Feature", "properties": {"name": "4 PA Cavalry", "state": "PA","mon_type": "CM", "icon": "6","picture": "M7212008-01-06T17_28_39-07_00.jpg"},"geometry": {"type": "Point", "coordinates": [-77.2345333333333,39.8048333333333]}},
{ "type": "Feature", "properties": {"name": "4 US Regulars", "state": "US","mon_type": "RM", "icon": "4","picture": "M7242007-07-29T16_48_54-06_00.jpg"},"geometry": {"type": "Point", "coordinates": [-77.2409,39.79495]}},
{ "type": "Feature", "properties": {"name": "40 NY", "state": "NY","mon_type": "RM", "icon": "4","picture": "M7262007-11-07T08_17_44-07_00.jpg"},"geometry": {"type": "Point", "coordinates": [-77.2404666666667,39.7923833333333]}},
{ "type": "Feature", "properties": {"name": "40 NY", "state": "NY","mon_type": "RM", "icon": "4","picture": "M7252007-11-07T08_17_30-07_00.jpg"},"geometry": {"type": "Point", "coordinates": [-77.2404333333333,39.7924]}},
{ "type": "Feature", "properties": {"name": "41 NY", "state": "NY","mon_type": "RM", "icon": "4","picture": "M7292007-08-24T09_53_28-06_00.jpg"},"geometry": {"type": "Point", "coordinates": [-77.2272,39.8214]}},
{ "type": "Feature", "properties": {"name": "42 NY", "state": "NY","mon_type": "RM", "icon": "4","picture": "M7322007-12-25T17_00_33-07_00.jpg"},"geometry": {"type": "Point", "coordinates": [-77.2354166666667,39.8120333333333]}},
{ "type": "Feature", "properties": {"name": "43 NC", "state": "NC","mon_type": "RM", "icon": "4","picture": "M7352007-08-26T08_23_26-06_00.jpg"},"geometry": {"type": "Point", "coordinates": [-77.2155166666667,39.81855]}},
{ "type": "Feature", "properties": {"name": "43 NY", "state": "NY","mon_type": "RM", "icon": "4","picture": "NA"},"geometry": {"type": "Point", "coordinates": [-77.2099,39.8079833333333]}},
{ "type": "Feature", "properties": {"name": "45 NY", "state": "NY","mon_type": "RM", "icon": "4","picture": "M7402007-08-10T16_01_35-06_00.jpg"},"geometry": {"type": "Point", "coordinates": [-77.23465,39.8408166666667]}},
{ "type": "Feature", "properties": {"name": "46 PA", "state": "PA","mon_type": "RM", "icon": "4","picture": "M7412007-08-28T08_48_21-06_00.jpg"},"geometry": {"type": "Point", "coordinates": [-77.2171166666667,39.8152166666667]}},
{ "type": "Feature", "properties": {"name": "49 NY", "state": "NY","mon_type": "RM", "icon": "4","picture": "NA"},"geometry": {"type": "Point", "coordinates": [-77.2111833333333,39.8077833333333]}},
{ "type": "Feature", "properties": {"name": "4A US Regulars Artillery", "state": "US","mon_type": "AM", "icon": "5","picture": "M7502007-12-24T15_58_00-07_00.jpg"},"geometry": {"type": "Point", "coordinates": [-77.2358333333333,39.8131833333333]}},
{ "type": "Feature", "properties": {"name": "4B US Regulars Artillery", "state": "US","mon_type": "AM", "icon": "5","picture": "M7512007-08-18T19_06_20-06_00.jpg"},"geometry": {"type": "Point", "coordinates": [-77.2292666666667,39.82125]}},
{ "type": "Feature", "properties": {"name": "4C US Regulars Artillery (Thomas)", "state": "US","mon_type": "AM", "icon": "5","picture": "M7532008-01-05T16_11_49-07_00.jpg"},"geometry": {"type": "Point", "coordinates": [-77.23575,39.8075]}},
{ "type": "Feature", "properties": {"name": "4E US Horse Artillery (Elder)", "state": "US","mon_type": "AM", "icon": "5","picture": "M7542007-10-22T17_29_56-06_00.jpg"},"geometry": {"type": "Point", "coordinates": [-77.24655,39.7832166666667]}},
{ "type": "Feature", "properties": {"name": "4G US Regulars Artillery", "state": "US","mon_type": "AM", "icon": "5","picture": "M7562007-08-12T19_21_47-06_00.jpg"},"geometry": {"type": "Point", "coordinates": [-77.2261666666667,39.8455333333333]}},
{ "type": "Feature", "properties": {"name": "4G US Regulars Artillery", "state": "US","mon_type": "AM", "icon": "5","picture": "M7572007-08-17T11_43_59-06_00.jpg"},"geometry": {"type": "Point", "coordinates": [-77.2307333333333,39.8202833333333]}},
{ "type": "Feature", "properties": {"name": "4K US Regulars Artillery", "state": "US","mon_type": "AM", "icon": "5","picture": "M7582008-01-09T15_32_01-07_00.jpg"},"geometry": {"type": "Point", "coordinates": [-77.2468333333333,39.8056333333333]}},
{ "type": "Feature", "properties": {"name": "5 Corps (US)", "state": "US","mon_type": "CM", "icon": "12","picture": "M7592008-01-10T16_34_22-07_00.jpg"},"geometry": {"type": "Point", "coordinates": [-77.2351,39.7931833333333]}},
{ "type": "Feature", "properties": {"name": "5 Corps HQ (SYKES)", "state": "US","mon_type": "HQ", "icon": "12","picture": "M7612008-01-06T17_28_49-07_00.jpg"},"geometry": {"type": "Point", "coordinates": [-77.2344166666667,39.7970666666667]}},
{ "type": "Feature", "properties": {"name": "5 CT", "state": "CT","mon_type": "RM", "icon": "4","picture": "M7622007-08-28T08_48_30-06_00.jpg"},"geometry": {"type": "Point", "coordinates": [-77.2173,39.81565]}},
{ "type": "Feature", "properties": {"name": "5 July  ANV Itinerary Tablet", "state": "OT","mon_type": "IT", "icon": "17","picture": "M13592007-09-06T15_49_56-06_00.jpg"},"geometry": {"type": "Point", "coordinates": [-77.2448,39.8271833333333]}},
{ "type": "Feature", "properties": {"name": "5 ME", "state": "ME","mon_type": "RM", "icon": "4","picture": "M7642008-01-06T17_29_01-07_00.jpg"},"geometry": {"type": "Point", "coordinates": [-77.2350166666667,39.7953]}},
{ "type": "Feature", "properties": {"name": "5 MI", "state": "MI","mon_type": "RM", "icon": "4","picture": "M7672007-11-08T09_14_37-07_00.jpg"},"geometry": {"type": "Point", "coordinates": [-77.24495,39.7971833333333]}},
{ "type": "Feature", "properties": {"name": "5 NH", "state": "NH","mon_type": "RM", "icon": "4","picture": "M7682007-10-28T17_00_55-06_00.jpg"},"geometry": {"type": "Point", "coordinates": [-77.2419,39.79505]}},
{ "type": "Feature", "properties": {"name": "5 NJ", "state": "NJ","mon_type": "RM", "icon": "4","picture": "M7702008-01-10T16_44_43-07_00.jpg"},"geometry": {"type": "Point", "coordinates": [-77.2453,39.8074833333333]}},
{ "type": "Feature", "properties": {"name": "5 NY Artillery", "state": "NY","mon_type": "AM", "icon": "5","picture": "M7712007-08-18T18_42_02-06_00.jpg"},"geometry": {"type": "Point", "coordinates": [-77.22885,39.8203333333333]}},
{ "type": "Feature", "properties": {"name": "5 NY Artillery", "state": "NY","mon_type": "AM", "icon": "5","picture": "M7722007-08-18T18_30_51-06_00.jpg"},"geometry": {"type": "Point", "coordinates": [-77.22965,39.82055]}},
{ "type": "Feature", "properties": {"name": "5 NY Artillery", "state": "NY","mon_type": "AM", "icon": "5","picture": "M7732007-08-17T11_44_09-06_00.jpg"},"geometry": {"type": "Point", "coordinates": [-77.2299166666667,39.8209166666667]}},
{ "type": "Feature", "properties": {"name": "5 NY Cavalry", "state": "NY","mon_type": "CM", "icon": "6","picture": "M7762007-10-22T17_30_06-06_00.jpg"},"geometry": {"type": "Point", "coordinates": [-77.2467,39.7831333333333]}},
{ "type": "Feature", "properties": {"name": "5 OH", "state": "OH","mon_type": "RM", "icon": "4","picture": "M7802007-09-03T18_10_45-06_00.jpg"},"geometry": {"type": "Point", "coordinates": [-77.22025,39.81625]}},
{ "type": "Feature", "properties": {"name": "5 OH", "state": "OH","mon_type": "RM", "icon": "4","picture": "M7812007-09-03T18_10_54-06_00.jpg"},"geometry": {"type": "Point", "coordinates": [-77.22055,39.8162]}},
{ "type": "Feature", "properties": {"name": "52 NY", "state": "NY","mon_type": "RM", "icon": "4","picture": "M7912007-11-08T09_14_53-07_00.jpg"},"geometry": {"type": "Point", "coordinates": [-77.2453166666667,39.7974]}},
{ "type": "Feature", "properties": {"name": "53 PA", "state": "PA","mon_type": "RM", "icon": "4","picture": "M7942007-10-31T15_09_10-06_00.jpg"},"geometry": {"type": "Point", "coordinates": [-77.2470166666667,39.79515]}},
{ "type": "Feature", "properties": {"name": "54 NY", "state": "NY","mon_type": "RM", "icon": "4","picture": "M7982007-08-24T09_53_38-06_00.jpg"},"geometry": {"type": "Point", "coordinates": [-77.2278166666667,39.8221833333333]}},
{ "type": "Feature", "properties": {"name": "56 PA", "state": "PA","mon_type": "RM", "icon": "4","picture": "M8022007-08-05T14_09_49-06_00.jpg"},"geometry": {"type": "Point", "coordinates": [-77.2472166666667,39.83895]}},
{ "type": "Feature", "properties": {"name": "57 NY", "state": "NY","mon_type": "RM", "icon": "4","picture": "M8052007-11-08T09_15_03-07_00.jpg"},"geometry": {"type": "Point", "coordinates": [-77.2445166666667,39.7968833333333]}},
{ "type": "Feature", "properties": {"name": "57 PA", "state": "PA","mon_type": "RM", "icon": "4","picture": "M8082008-01-10T16_45_48-07_00.jpg"},"geometry": {"type": "Point", "coordinates": [-77.24865,39.8037]}},
{ "type": "Feature", "properties": {"name": "58 NY", "state": "NY","mon_type": "RM", "icon": "4","picture": "M8112007-08-12T12_31_43-06_00.jpg"},"geometry": {"type": "Point", "coordinates": [-77.2280666666667,39.8437833333333]}},
{ "type": "Feature", "properties": {"name": "59 NY", "state": "NY","mon_type": "RM", "icon": "4","picture": "M8122007-12-25T17_00_42-07_00.jpg"},"geometry": {"type": "Point", "coordinates": [-77.2362166666667,39.81205]}},
{ "type": "Feature", "properties": {"name": "5C US Regulars Artillery", "state": "US","mon_type": "AM", "icon": "5","picture": "M8152007-12-28T17_24_13-07_00.jpg"},"geometry": {"type": "Point", "coordinates": [-77.236,39.8100333333333]}},
{ "type": "Feature", "properties": {"name": "5D US Regulars Artillery", "state": "US","mon_type": "AM", "icon": "5","picture": "M8162007-12-27T16_49_39-07_00.jpg"},"geometry": {"type": "Point", "coordinates": [-77.2365666666667,39.79215]}},
{ "type": "Feature", "properties": {"name": "5E MA Artillery", "state": "MA","mon_type": "AM", "icon": "5","picture": "M8182008-01-06T17_29_14-07_00.jpg"},"geometry": {"type": "Point", "coordinates": [-77.2348333333333,39.8057166666667]}},
{ "type": "Feature", "properties": {"name": "5E MA Artillery", "state": "MA","mon_type": "AM", "icon": "5","picture": "M8172007-11-14T17_35_42-07_00.jpg"},"geometry": {"type": "Point", "coordinates": [-77.2469333333333,39.8005833333333]}},
{ "type": "Feature", "properties": {"name": "5E ME Artillery", "state": "ME","mon_type": "AM", "icon": "5","picture": "M8192007-08-24T11_22_22-06_00.jpg"},"geometry": {"type": "Point", "coordinates": [-77.2245166666667,39.8193333333333]}},
{ "type": "Feature", "properties": {"name": "5E ME Artillery", "state": "ME","mon_type": "AM", "icon": "5","picture": "NA"},"geometry": {"type": "Point", "coordinates": [-77.2448833333333,39.8337]}},
{ "type": "Feature", "properties": {"name": "5F US Regulars Artillery", "state": "US","mon_type": "AM", "icon": "5","picture": "M8232007-12-20T18_33_08-07_00.jpg"},"geometry": {"type": "Point", "coordinates": [-77.23415,39.8162]}},
{ "type": "Feature", "properties": {"name": "5K US Regulars Artillery", "state": "US","mon_type": "AM", "icon": "5","picture": "M8252007-08-26T17_45_58-06_00.jpg"},"geometry": {"type": "Point", "coordinates": [-77.2202833333333,39.8201]}},
{ "type": "Feature", "properties": {"name": "5th Corp", "state": "US","mon_type": "CM", "icon": "12","picture": "M8272008-01-06T17_29_24-07_00.jpg"},"geometry": {"type": "Point", "coordinates": [-77.2343333333333,39.7971166666667]}},
{ "type": "Feature", "properties": {"name": "6 Corps HQ (SEDGWICK)", "state": "US","mon_type": "HQ", "icon": "12","picture": "M8302008-01-06T17_29_34-07_00.jpg"},"geometry": {"type": "Point", "coordinates": [-77.2348333333333,39.7975333333333]}},
{ "type": "Feature", "properties": {"name": "6 NJ", "state": "NJ","mon_type": "RM", "icon": "4","picture": "M8332007-11-07T08_17_53-07_00.jpg"},"geometry": {"type": "Point", "coordinates": [-77.2407166666667,39.7933833333333]}},
{ "type": "Feature", "properties": {"name": "6 NY Cavalry", "state": "NY","mon_type": "CM", "icon": "6","picture": "M8372007-08-08T12_55_37-06_00.jpg"},"geometry": {"type": "Point", "coordinates": [-77.2471666666667,39.8445833333333]}},
{ "type": "Feature", "properties": {"name": "6 OH Cavalry", "state": "OH","mon_type": "CM", "icon": "6","picture": "M8402008-01-05T17_15_53-07_00.jpg"},"geometry": {"type": "Point", "coordinates": [-77.2306166666667,39.8079166666667]}},
{ "type": "Feature", "properties": {"name": "6 PA Reserves", "state": "PA","mon_type": "RM", "icon": "4","picture": "M8432008-01-08T15_35_14-07_00.jpg"},"geometry": {"type": "Point", "coordinates": [-77.2397333333333,39.7978333333333]}},
{ "type": "Feature", "properties": {"name": "6 US Regulars", "state": "US","mon_type": "RM", "icon": "4","picture": "M8462007-07-29T16_49_09-06_00.jpg"},"geometry": {"type": "Point", "coordinates": [-77.2409833333333,39.7948333333333]}},
{ "type": "Feature", "properties": {"name": "6 WI", "state": "WI","mon_type": "RM", "icon": "4","picture": "M8492007-08-05T14_10_31-06_00.jpg"},"geometry": {"type": "Point", "coordinates": [-77.2481166666667,39.83735]}},
{ "type": "Feature", "properties": {"name": "60 NY", "state": "NY","mon_type": "RM", "icon": "4","picture": "M8562007-08-26T18_03_27-06_00.jpg"},"geometry": {"type": "Point", "coordinates": [-77.2196833333333,39.81955]}},
{ "type": "Feature", "properties": {"name": "60 NY (Company I)", "state": "NY","mon_type": "RM", "icon": "4","picture": "M8532007-09-05T09_35_20-06_00.jpg"},"geometry": {"type": "Point", "coordinates": [-77.21925,39.8196166666667]}},
{ "type": "Feature", "properties": {"name": "61 NY", "state": "NY","mon_type": "RM", "icon": "4","picture": "M8572007-10-28T16_51_49-06_00.jpg"},"geometry": {"type": "Point", "coordinates": [-77.2419833333333,39.7969833333333]}},
{ "type": "Feature", "properties": {"name": "61 OH", "state": "OH","mon_type": "RM", "icon": "4","picture": "M8602007-08-10T16_01_45-06_00.jpg"},"geometry": {"type": "Point", "coordinates": [-77.2340166666667,39.8416]}},
{ "type": "Feature", "properties": {"name": "61 PA", "state": "PA","mon_type": "RM", "icon": "4","picture": "NA"},"geometry": {"type": "Point", "coordinates": [-77.20805,39.8081]}},
{ "type": "Feature", "properties": {"name": "62 NY", "state": "NY","mon_type": "RM", "icon": "4","picture": "M8662008-01-08T15_35_24-07_00.jpg"},"geometry": {"type": "Point", "coordinates": [-77.2374,39.7972333333333]}},
{ "type": "Feature", "properties": {"name": "62 PA", "state": "PA","mon_type": "RM", "icon": "4","picture": "M8692007-10-31T15_09_19-06_00.jpg"},"geometry": {"type": "Point", "coordinates": [-77.2440666666667,39.7958833333333]}},
{ "type": "Feature", "properties": {"name": "63 PA", "state": "PA","mon_type": "RM", "icon": "4","picture": "M8732007-12-20T16_37_03-07_00.jpg"},"geometry": {"type": "Point", "coordinates": [-77.2501,39.8018166666667]}},
{ "type": "Feature", "properties": {"name": "65 NY", "state": "NY","mon_type": "RM", "icon": "4","picture": "M8762007-09-03T18_11_05-06_00.jpg"},"geometry": {"type": "Point", "coordinates": [-77.2196166666667,39.8180333333333]}},
{ "type": "Feature", "properties": {"name": "66 NY", "state": "NY","mon_type": "RM", "icon": "4","picture": "M8782007-11-08T09_15_17-07_00.jpg"},"geometry": {"type": "Point", "coordinates": [-77.2450666666667,39.7972166666667]}},
{ "type": "Feature", "properties": {"name": "66 OH", "state": "OH","mon_type": "RM", "icon": "4","picture": "M8792007-08-26T17_50_45-06_00.jpg"},"geometry": {"type": "Point", "coordinates": [-77.21965,39.82015]}},
{ "type": "Feature", "properties": {"name": "67 NY", "state": "NY","mon_type": "RM", "icon": "4","picture": "M8812007-09-03T18_11_13-06_00.jpg"},"geometry": {"type": "Point", "coordinates": [-77.2196666666667,39.8177333333333]}},
{ "type": "Feature", "properties": {"name": "68 NY", "state": "NY","mon_type": "RM", "icon": "4","picture": "M8822007-08-24T09_53_46-06_00.jpg"},"geometry": {"type": "Point", "coordinates": [-77.22765,39.8219666666667]}},
{ "type": "Feature", "properties": {"name": "68 PA", "state": "PA","mon_type": "RM", "icon": "4","picture": "M8862007-12-09T08_22_10-07_00.jpg"},"geometry": {"type": "Point", "coordinates": [-77.2491833333333,39.8014333333333]}},
{ "type": "Feature", "properties": {"name": "68 PA", "state": "PA","mon_type": "RM", "icon": "4","picture": "M8852007-11-19T16_45_20-07_00.jpg"},"geometry": {"type": "Point", "coordinates": [-77.2504666666667,39.8006333333333]}},
{ "type": "Feature", "properties": {"name": "69 PA", "state": "PA","mon_type": "RM", "icon": "4","picture": "M8892007-12-24T15_58_13-07_00.jpg"},"geometry": {"type": "Point", "coordinates": [-77.2363,39.81265]}},
{ "type": "Feature", "properties": {"name": "6EI PA Cavalry", "state": "PA","mon_type": "CM", "icon": "6","picture": "M8912007-12-22T17_29_11-07_00.jpg"},"geometry": {"type": "Point", "coordinates": [-77.2321333333333,39.8145833333333]}},
{ "type": "Feature", "properties": {"name": "6F ME Artillery", "state": "ME","mon_type": "AM", "icon": "5","picture": "M8922008-01-06T17_29_46-07_00.jpg"},"geometry": {"type": "Point", "coordinates": [-77.2345166666667,39.8033]}},
{ "type": "Feature", "properties": {"name": "7 IN", "state": "IN","mon_type": "RM", "icon": "4","picture": "M8952007-08-26T17_58_36-06_00.jpg"},"geometry": {"type": "Point", "coordinates": [-77.2203333333333,39.8203333333333]}},
{ "type": "Feature", "properties": {"name": "7 MA", "state": "MA","mon_type": "RM", "icon": "4","picture": "M8972007-12-09T13_45_25-07_00.jpg"},"geometry": {"type": "Point", "coordinates": [-77.23415,39.79595]}},
{ "type": "Feature", "properties": {"name": "7 ME", "state": "ME","mon_type": "RM", "icon": "4","picture": "NA"},"geometry": {"type": "Point", "coordinates": [-77.2106166666667,39.8078666666667]}},
{ "type": "Feature", "properties": {"name": "7 MI", "state": "MI","mon_type": "RM", "icon": "4","picture": "M9032007-12-25T17_00_51-07_00.jpg"},"geometry": {"type": "Point", "coordinates": [-77.23615,39.8117833333333]}},
{ "type": "Feature", "properties": {"name": "7 NJ", "state": "NJ","mon_type": "RM", "icon": "4","picture": "M9062007-11-14T16_26_18-07_00.jpg"},"geometry": {"type": "Point", "coordinates": [-77.2467833333333,39.8014666666667]}},
{ "type": "Feature", "properties": {"name": "7 OH", "state": "OH","mon_type": "RM", "icon": "4","picture": "M9072007-09-03T19_25_33-06_00.jpg"},"geometry": {"type": "Point", "coordinates": [-77.2197333333333,39.8173333333333]}},
{ "type": "Feature", "properties": {"name": "7 US Regulars", "state": "US","mon_type": "RM", "icon": "4","picture": "M9102007-10-28T17_01_06-06_00.jpg"},"geometry": {"type": "Point", "coordinates": [-77.2413666666667,39.79525]}},
{ "type": "Feature", "properties": {"name": "7 WI", "state": "WI","mon_type": "RM", "icon": "4","picture": "M9112007-07-29T15_38_46-06_00.jpg"},"geometry": {"type": "Point", "coordinates": [-77.25385,39.83575]}},
{ "type": "Feature", "properties": {"name": "7 WV", "state": "WV","mon_type": "RM", "icon": "4","picture": "NA"},"geometry": {"type": "Point", "coordinates": [-77.2283,39.8220666666667]}},
{ "type": "Feature", "properties": {"name": "7 WV", "state": "WV","mon_type": "RM", "icon": "4","picture": "M9152007-08-18T08_14_04-06_00.jpg"},"geometry": {"type": "Point", "coordinates": [-77.2288833333333,39.8216666666667]}},
{ "type": "Feature", "properties": {"name": "7 WV", "state": "WV","mon_type": "RM", "icon": "4","picture": "M9172007-08-24T09_53_56-06_00.jpg"},"geometry": {"type": "Point", "coordinates": [-77.2276166666667,39.8220166666667]}},
{ "type": "Feature", "properties": {"name": "70 NY", "state": "NY","mon_type": "RM", "icon": "4","picture": "M9192007-12-20T16_50_17-07_00.jpg"},"geometry": {"type": "Point", "coordinates": [-77.2478166666667,39.8016333333333]}},
{ "type": "Feature", "properties": {"name": "71 NY", "state": "NY","mon_type": "RM", "icon": "4","picture": "M9212007-12-20T16_50_28-07_00.jpg"},"geometry": {"type": "Point", "coordinates": [-77.24765,39.8021333333333]}},
{ "type": "Feature", "properties": {"name": "71 PA", "state": "PA","mon_type": "RM", "icon": "4","picture": "M9222007-12-24T15_58_22-07_00.jpg"},"geometry": {"type": "Point", "coordinates": [-77.2363333333333,39.8133833333333]}},
{ "type": "Feature", "properties": {"name": "72 NY", "state": "NY","mon_type": "RM", "icon": "4","picture": "M9252007-12-20T16_50_38-07_00.jpg"},"geometry": {"type": "Point", "coordinates": [-77.2470833333333,39.8027]}},
{ "type": "Feature", "properties": {"name": "72 PA", "state": "PA","mon_type": "RM", "icon": "4","picture": "M9272007-12-25T17_32_39-07_00.jpg"},"geometry": {"type": "Point", "coordinates": [-77.2357666666667,39.8129]}},
{ "type": "Feature", "properties": {"name": "72 PA", "state": "PA","mon_type": "RM", "icon": "4","picture": "M9262007-12-24T16_42_01-07_00.jpg"},"geometry": {"type": "Point", "coordinates": [-77.2362666666667,39.8128666666667]}},
{ "type": "Feature", "properties": {"name": "73 NY", "state": "NY","mon_type": "RM", "icon": "4","picture": "M9292007-12-20T16_50_47-07_00.jpg"},"geometry": {"type": "Point", "coordinates": [-77.24765,39.8018666666667]}},
{ "type": "Feature", "properties": {"name": "73 NY", "state": "NY","mon_type": "RM", "icon": "4","picture": "M9282007-11-14T16_26_28-07_00.jpg"},"geometry": {"type": "Point", "coordinates": [-77.2482333333333,39.8021333333333]}},
{ "type": "Feature", "properties": {"name": "73 PA", "state": "PA","mon_type": "RM", "icon": "4","picture": "M9332007-08-18T08_14_12-06_00.jpg"},"geometry": {"type": "Point", "coordinates": [-77.2292166666667,39.8219833333333]}},
{ "type": "Feature", "properties": {"name": "74 NY", "state": "NY","mon_type": "RM", "icon": "4","picture": "M9362007-12-20T16_50_56-07_00.jpg"},"geometry": {"type": "Point", "coordinates": [-77.2466333333333,39.80325]}},
{ "type": "Feature", "properties": {"name": "74 PA", "state": "PA","mon_type": "RM", "icon": "4","picture": "M9372007-08-10T16_01_53-06_00.jpg"},"geometry": {"type": "Point", "coordinates": [-77.2341833333333,39.8412333333333]}},
{ "type": "Feature", "properties": {"name": "75 PA", "state": "PA","mon_type": "RM", "icon": "4","picture": "M9432007-08-12T13_00_57-06_00.jpg"},"geometry": {"type": "Point", "coordinates": [-77.2296,39.84335]}},
{ "type": "Feature", "properties": {"name": "75 PA", "state": "PA","mon_type": "RM", "icon": "4","picture": "M9442007-08-17T11_44_45-06_00.jpg"},"geometry": {"type": "Point", "coordinates": [-77.2305166666667,39.8214166666667]}},
{ "type": "Feature", "properties": {"name": "76 NY", "state": "NY","mon_type": "RM", "icon": "4","picture": "M9472007-08-26T18_01_07-06_00.jpg"},"geometry": {"type": "Point", "coordinates": [-77.22005,39.82025]}},
{ "type": "Feature", "properties": {"name": "76 NY", "state": "NY","mon_type": "RM", "icon": "4","picture": "M9482007-08-05T14_10_40-06_00.jpg"},"geometry": {"type": "Point", "coordinates": [-77.2465666666667,39.8399333333333]}},
{ "type": "Feature", "properties": {"name": "78 & 102 NY", "state": "NY","mon_type": "RM", "icon": "4","picture": "M9542007-08-27T17_28_40-06_00.jpg"},"geometry": {"type": "Point", "coordinates": [-77.2194166666667,39.8184333333333]}},
{ "type": "Feature", "properties": {"name": "8 IL Cavalry", "state": "IL","mon_type": "CM", "icon": "6","picture": "M9572007-08-02T14_59_53-06_00.jpg"},"geometry": {"type": "Point", "coordinates": [-77.24955,39.8358]}},
{ "type": "Feature", "properties": {"name": "8 NJ", "state": "NJ","mon_type": "RM", "icon": "4","picture": "M9582007-10-31T15_09_40-06_00.jpg"},"geometry": {"type": "Point", "coordinates": [-77.2456,39.7959833333333]}},
{ "type": "Feature", "properties": {"name": "8 NY Cavalry", "state": "NY","mon_type": "CM", "icon": "6","picture": "M9612007-08-02T15_00_08-06_00.jpg"},"geometry": {"type": "Point", "coordinates": [-77.2505,39.83355]}},
{ "type": "Feature", "properties": {"name": "8 PA Cavalry", "state": "PA","mon_type": "CM", "icon": "6","picture": "M9672008-01-05T16_12_04-07_00.jpg"},"geometry": {"type": "Point", "coordinates": [-77.23465,39.8083166666667]}},
{ "type": "Feature", "properties": {"name": "8 US Regulars", "state": "US","mon_type": "RM", "icon": "4","picture": "M9682007-12-22T17_29_20-07_00.jpg"},"geometry": {"type": "Point", "coordinates": [-77.23255,39.8145833333333]}},
{ "type": "Feature", "properties": {"name": "80 NY", "state": "NY","mon_type": "RM", "icon": "4","picture": "M9692007-12-28T17_55_56-07_00.jpg"},"geometry": {"type": "Point", "coordinates": [-77.236,39.81025]}},
{ "type": "Feature", "properties": {"name": "80 NY", "state": "NY","mon_type": "RM", "icon": "4","picture": "M9702007-07-29T14_27_51-06_00.jpg"},"geometry": {"type": "Point", "coordinates": [-77.2512666666667,39.8314333333333]}},
{ "type": "Feature", "properties": {"name": "81 PA", "state": "PA","mon_type": "RM", "icon": "4","picture": "M9732007-10-24T10_10_43-06_00.jpg"},"geometry": {"type": "Point", "coordinates": [-77.2420166666667,39.7966]}},
{ "type": "Feature", "properties": {"name": "82 IL", "state": "IL","mon_type": "RM", "icon": "4","picture": "M9762007-08-12T12_32_07-06_00.jpg"},"geometry": {"type": "Point", "coordinates": [-77.2323333333333,39.8428333333333]}},
{ "type": "Feature", "properties": {"name": "82 NY", "state": "NY","mon_type": "RM", "icon": "4","picture": "M9772007-12-28T17_24_24-07_00.jpg"},"geometry": {"type": "Point", "coordinates": [-77.2360666666667,39.8103333333333]}},
{ "type": "Feature", "properties": {"name": "82 OH", "state": "OH","mon_type": "RM", "icon": "4","picture": "M9782007-08-12T12_32_16-06_00.jpg"},"geometry": {"type": "Point", "coordinates": [-77.2300166666667,39.8432833333333]}},
{ "type": "Feature", "properties": {"name": "82 PA", "state": "PA","mon_type": "RM", "icon": "4","picture": "M9812007-09-03T18_11_39-06_00.jpg"},"geometry": {"type": "Point", "coordinates": [-77.21965,39.8179]}},
{ "type": "Feature", "properties": {"name": "83 NY", "state": "NY","mon_type": "RM", "icon": "4","picture": "M9842007-08-07T16_50_49-06_00.jpg"},"geometry": {"type": "Point", "coordinates": [-77.2422,39.84295]}},
{ "type": "Feature", "properties": {"name": "83 PA", "state": "PA","mon_type": "RM", "icon": "4","picture": "M9872007-10-24T08_59_49-06_00.jpg"},"geometry": {"type": "Point", "coordinates": [-77.2370333333333,39.7902166666667]}},
{ "type": "Feature", "properties": {"name": "84 NY", "state": "NY","mon_type": "RM", "icon": "4","picture": "M9922007-07-29T15_39_05-06_00.jpg"},"geometry": {"type": "Point", "coordinates": [-77.2528666666667,39.8358]}},
{ "type": "Feature", "properties": {"name": "84 NY", "state": "NY","mon_type": "RM", "icon": "4","picture": "M9912007-09-03T18_11_49-06_00.jpg"},"geometry": {"type": "Point", "coordinates": [-77.21945,39.8170833333333]}},
{ "type": "Feature", "properties": {"name": "84 NY", "state": "NY","mon_type": "RM", "icon": "4","picture": "M9902007-08-05T14_10_52-06_00.jpg"},"geometry": {"type": "Point", "coordinates": [-77.2484666666667,39.8376166666667]}},
{ "type": "Feature", "properties": {"name": "84 PA", "state": "PA","mon_type": "RM", "icon": "4","picture": "M9952008-01-05T16_38_27-07_00.jpg"},"geometry": {"type": "Point", "coordinates": [-77.2353333333333,39.8082]}},
{ "type": "Feature", "properties": {"name": "86 NY", "state": "NY","mon_type": "RM", "icon": "4","picture": "M9982007-11-07T08_18_03-07_00.jpg"},"geometry": {"type": "Point", "coordinates": [-77.2426333333333,39.7936166666667]}},
{ "type": "Feature", "properties": {"name": "88 PA", "state": "PA","mon_type": "RM", "icon": "4","picture": "M10022007-12-20T17_03_21-07_00.jpg"},"geometry": {"type": "Point", "coordinates": [-77.23385,39.817]}},
{ "type": "Feature", "properties": {"name": "88 PA", "state": "PA","mon_type": "RM", "icon": "4","picture": "M10042007-08-09T16_01_25-06_00.jpg"},"geometry": {"type": "Point", "coordinates": [-77.2428666666667,39.8436333333333]}},
{ "type": "Feature", "properties": {"name": "88 PA", "state": "PA","mon_type": "RM", "icon": "4","picture": "M10012008-01-06T17_29_58-07_00.jpg"},"geometry": {"type": "Point", "coordinates": [-77.235,39.80655]}},
{ "type": "Feature", "properties": {"name": "88 PA", "state": "PA","mon_type": "RM", "icon": "4","picture": "M10002007-08-05T15_42_11-06_00.jpg"},"geometry": {"type": "Point", "coordinates": [-77.24205,39.8434166666667]}},
{ "type": "Feature", "properties": {"name": "9 MA", "state": "MA","mon_type": "RM", "icon": "4","picture": "M10072007-10-22T18_00_42-06_00.jpg"},"geometry": {"type": "Point", "coordinates": [-77.2377,39.7885833333333]}},
{ "type": "Feature", "properties": {"name": "9 MA Artillery", "state": "MA","mon_type": "AM", "icon": "5","picture": "M10082007-12-20T17_43_43-07_00.jpg"},"geometry": {"type": "Point", "coordinates": [-77.23485,39.816]}},
{ "type": "Feature", "properties": {"name": "9 MA Artillery", "state": "MA","mon_type": "AM", "icon": "5","picture": "M10102007-11-14T16_26_38-07_00.jpg"},"geometry": {"type": "Point", "coordinates": [-77.2455833333333,39.8001166666667]}},
{ "type": "Feature", "properties": {"name": "9 MI Artillery", "state": "MI","mon_type": "AM", "icon": "5","picture": "M10132008-01-05T16_12_14-07_00.jpg"},"geometry": {"type": "Point", "coordinates": [-77.2359833333333,39.8078666666667]}},
{ "type": "Feature", "properties": {"name": "9 NY Cavalry", "state": "NY","mon_type": "CM", "icon": "6","picture": "M10162007-08-08T12_55_48-06_00.jpg"},"geometry": {"type": "Point", "coordinates": [-77.24615,39.8459833333333]}},
{ "type": "Feature", "properties": {"name": "9 PA Reserves", "state": "PA","mon_type": "RM", "icon": "4","picture": "M10192007-10-24T09_10_00-06_00.jpg"},"geometry": {"type": "Point", "coordinates": [-77.2373333333333,39.78975]}},
{ "type": "Feature", "properties": {"name": "90 PA", "state": "PA","mon_type": "RM", "icon": "4","picture": "M10242007-12-20T17_03_31-07_00.jpg"},"geometry": {"type": "Point", "coordinates": [-77.23425,39.8169833333333]}},
{ "type": "Feature", "properties": {"name": "90 PA", "state": "PA","mon_type": "RM", "icon": "4","picture": "M10232008-01-06T17_30_08-07_00.jpg"},"geometry": {"type": "Point", "coordinates": [-77.2349833333333,39.8063666666667]}},
{ "type": "Feature", "properties": {"name": "90 PA", "state": "PA","mon_type": "RM", "icon": "4","picture": "M10222007-08-05T15_42_20-06_00.jpg"},"geometry": {"type": "Point", "coordinates": [-77.24195,39.8444]}},
{ "type": "Feature", "properties": {"name": "91 PA", "state": "PA","mon_type": "RM", "icon": "4","picture": "M10292007-12-28T16_58_28-07_00.jpg"},"geometry": {"type": "Point", "coordinates": [-77.2367333333333,39.7920166666667]}},
{ "type": "Feature", "properties": {"name": "93 NY", "state": "NY","mon_type": "RM", "icon": "4","picture": "M10322007-12-22T17_29_32-07_00.jpg"},"geometry": {"type": "Point", "coordinates": [-77.232,39.8145833333333]}},
{ "type": "Feature", "properties": {"name": "93 PA", "state": "PA","mon_type": "RM", "icon": "4","picture": "M10352008-01-08T15_35_36-07_00.jpg"},"geometry": {"type": "Point", "coordinates": [-77.2375666666667,39.7970166666667]}},
{ "type": "Feature", "properties": {"name": "93 PA", "state": "PA","mon_type": "RM", "icon": "4","picture": "M10362008-01-06T17_30_18-07_00.jpg"},"geometry": {"type": "Point", "coordinates": [-77.2346166666667,39.79605]}},
{ "type": "Feature", "properties": {"name": "94 NY", "state": "NY","mon_type": "RM", "icon": "4","picture": "M10392007-08-07T16_51_03-06_00.jpg"},"geometry": {"type": "Point", "coordinates": [-77.2429833333333,39.8413333333333]}},
{ "type": "Feature", "properties": {"name": "95 NY", "state": "NY","mon_type": "RM", "icon": "4","picture": "M10462007-08-07T17_42_14-06_00.jpg"},"geometry": {"type": "Point", "coordinates": [-77.2438333333333,39.8394333333333]}},
{ "type": "Feature", "properties": {"name": "95 NY", "state": "NY","mon_type": "RM", "icon": "4","picture": "M10442007-08-05T14_11_07-06_00.jpg"},"geometry": {"type": "Point", "coordinates": [-77.2480333333333,39.8374333333333]}},
{ "type": "Feature", "properties": {"name": "95 NY", "state": "NY","mon_type": "RM", "icon": "4","picture": "M10432007-08-26T17_28_49-06_00.jpg"},"geometry": {"type": "Point", "coordinates": [-77.22005,39.8202]}},
{ "type": "Feature", "properties": {"name": "95 PA", "state": "PA","mon_type": "RM", "icon": "4","picture": "M10492008-01-06T18_29_11-07_00.jpg"},"geometry": {"type": "Point", "coordinates": [-77.2365166666667,39.7954333333333]}},
{ "type": "Feature", "properties": {"name": "96 PA", "state": "PA","mon_type": "RM", "icon": "4","picture": "M10512008-01-08T15_35_45-07_00.jpg"},"geometry": {"type": "Point", "coordinates": [-77.2377166666667,39.7961166666667]}},
{ "type": "Feature", "properties": {"name": "97 NY", "state": "NY","mon_type": "RM", "icon": "4","picture": "M10542007-08-07T16_51_16-06_00.jpg"},"geometry": {"type": "Point", "coordinates": [-77.2424166666667,39.8425333333333]}},
{ "type": "Feature", "properties": {"name": "98 PA", "state": "PA","mon_type": "RM", "icon": "4","picture": "M10582008-01-10T16_34_31-07_00.jpg"},"geometry": {"type": "Point", "coordinates": [-77.2357166666667,39.7938166666667]}},
{ "type": "Feature", "properties": {"name": "98 PA", "state": "PA","mon_type": "RM", "icon": "4","picture": "M10572008-01-08T15_35_53-07_00.jpg"},"geometry": {"type": "Point", "coordinates": [-77.2367,39.7976]}},
{ "type": "Feature", "properties": {"name": "99 PA", "state": "PA","mon_type": "RM", "icon": "4","picture": "M10612007-11-07T08_18_11-07_00.jpg"},"geometry": {"type": "Point", "coordinates": [-77.2423166666667,39.7924333333333]}},
{ "type": "Feature", "properties": {"name": "99 PA", "state": "PA","mon_type": "RM", "icon": "4","picture": "M10622007-12-25T17_41_43-07_00.jpg"},"geometry": {"type": "Point", "coordinates": [-77.2351666666667,39.8135166666667]}},
{ "type": "Feature", "properties": {"name": "A.L. Coble Carving", "state": "NC","mon_type": "OT", "icon": "19","picture": "M10652007-09-02T09_59_45-06_00.jpg"},"geometry": {"type": "Point", "coordinates": [-77.2164166666667,39.8150833333333]}},
{ "type": "Feature", "properties": {"name": "AL State Memorial", "state": "AL","mon_type": "ST", "icon": "18","picture": "M10672007-07-17T17_34_25-06_00.jpg"},"geometry": {"type": "Point", "coordinates": [-77.2543,39.7865666666667]}},
{ "type": "Feature", "properties": {"name": "Albemarle VA Artillery (Wyatt)", "state": "VA","mon_type": "AM", "icon": "3","picture": "M10682007-09-30T17_43_39-06_00.jpg"},"geometry": {"type": "Point", "coordinates": [-77.2482166666667,39.8175333333333]}},
{ "type": "Feature", "properties": {"name": "Alexanders Artillery Brigade Reserve 1 Corps", "state": "OT","mon_type": "AM", "icon": "3","picture": "M10702007-10-15T17_50_19-06_00.jpg"},"geometry": {"type": "Point", "coordinates": [-77.2563166666667,39.80095]}},
{ "type": "Feature", "properties": {"name": "Alleghany VA Artillery (Carpenter)", "state": "VA","mon_type": "AM", "icon": "2","picture": "M10712007-08-19T16_33_42-06_00.jpg"},"geometry": {"type": "Point", "coordinates": [-77.2136333333333,39.8277]}},
{ "type": "Feature", "properties": {"name": "Amherst VA Artillery (Kirpatrick)", "state": "VA","mon_type": "AM", "icon": "2","picture": "M10722007-08-19T16_33_51-06_00.jpg"},"geometry": {"type": "Point", "coordinates": [-77.2124833333333,39.8300666666667]}},
{ "type": "Feature", "properties": {"name": "Anderson Brigade Hood Div", "state": "GA","mon_type": "BM", "icon": "8","picture": "M10742007-10-31T15_09_51-06_00.jpg"},"geometry": {"type": "Point", "coordinates": [-77.2455666666667,39.7935166666667]}},
{ "type": "Feature", "properties": {"name": "Anderson Brigade Hood Div", "state": "GA","mon_type": "BM", "icon": "8","picture": "M10752007-10-19T16_26_20-06_00.jpg"},"geometry": {"type": "Point", "coordinates": [-77.255,39.7925]}},
{ "type": "Feature", "properties": {"name": "Anderson Div 3 Corps (CSA)", "state": "GA","mon_type": "DM", "icon": "7","picture": "M10762007-10-06T09_09_26-06_00.jpg"},"geometry": {"type": "Point", "coordinates": [-77.2544166666667,39.80965]}},
{ "type": "Feature", "properties": {"name": "ANV Right Flank Plaque", "state": "OT","mon_type": "OT", "icon": "19","picture": "M10772007-10-22T17_30_29-06_00.jpg"},"geometry": {"type": "Point", "coordinates": [-77.2521666666667,39.7843]}},
{ "type": "Feature", "properties": {"name": "AR State Memorial", "state": "AR","mon_type": "ST", "icon": "18","picture": "M10662007-07-17T17_34_56-06_00.jpg"},"geometry": {"type": "Point", "coordinates": [-77.2550833333333,39.7925666666667]}},
{ "type": "Feature", "properties": {"name": "Archer Brigade Heth Div", "state": "TN","mon_type": "BM", "icon": "8","picture": "M10802007-09-30T17_43_51-06_00.jpg"},"geometry": {"type": "Point", "coordinates": [-77.24885,39.8168833333333]}},
{ "type": "Feature", "properties": {"name": "Armistead Brigade Pickett Div", "state": "VA","mon_type": "BM", "icon": "8","picture": "M10812007-10-06T09_09_34-06_00.jpg"},"geometry": {"type": "Point", "coordinates": [-77.2519166666667,39.8125]}},
{ "type": "Feature", "properties": {"name": "Armistead Wounding Site", "state": "VA","mon_type": "OT", "icon": "19","picture": "M10822007-12-24T15_58_51-07_00.jpg"},"geometry": {"type": "Point", "coordinates": [-77.2359333333333,39.8131333333333]}},
{ "type": "Feature", "properties": {"name": "Army of North Virginia Plaque", "state": "OT","mon_type": "OT", "icon": "17","picture": "M10832007-10-15T18_01_05-06_00.jpg"},"geometry": {"type": "Point", "coordinates": [-77.2506333333333,39.8142666666667]}},
{ "type": "Feature", "properties": {"name": "Army of Potomac Plaque", "state": "OT","mon_type": "OT", "icon": "17","picture": "M10842007-12-25T17_01_00-07_00.jpg"},"geometry": {"type": "Point", "coordinates": [-77.23535,39.81325]}},
{ "type": "Feature", "properties": {"name": "Artillery Brigade 11 Corps (US)", "state": "US","mon_type": "BM", "icon": "5","picture": "M10852007-08-10T16_02_05-06_00.jpg"},"geometry": {"type": "Point", "coordinates": [-77.2337333333333,39.8421833333333]}},
{ "type": "Feature", "properties": {"name": "Artillery Brigade 2 Corps (Hazard)", "state": "US","mon_type": "BM", "icon": "5","picture": "M10872007-12-24T15_59_05-07_00.jpg"},"geometry": {"type": "Point", "coordinates": [-77.2355166666667,39.8131833333333]}},
{ "type": "Feature", "properties": {"name": "Artillery Brigade 3 Corps (US)", "state": "US","mon_type": "BM", "icon": "5","picture": "M10882007-12-09T08_54_19-07_00.jpg"},"geometry": {"type": "Point", "coordinates": [-77.2498833333333,39.8015166666667]}},
{ "type": "Feature", "properties": {"name": "Artillery Brigade 3 Corps (US)", "state": "US","mon_type": "BM", "icon": "5","picture": "M10892007-11-14T17_52_02-07_00.jpg"},"geometry": {"type": "Point", "coordinates": [-77.2468166666667,39.80255]}},
{ "type": "Feature", "properties": {"name": "Artillery Brigade 6 Corps (US)", "state": "US","mon_type": "BM", "icon": "5","picture": "M10912008-01-06T17_30_31-07_00.jpg"},"geometry": {"type": "Point", "coordinates": [-77.2342166666667,39.80205]}},
{ "type": "Feature", "properties": {"name": "Artillery HQ (Hunt)", "state": "OT","mon_type": "HQ", "icon": "5","picture": "M10922007-12-22T17_29_41-07_00.jpg"},"geometry": {"type": "Point", "coordinates": [-77.2317833333333,39.8136]}},
{ "type": "Feature", "properties": {"name": "Artillery Reserve (US)", "state": "US","mon_type": "BM", "icon": "5","picture": "M10932008-01-05T17_11_08-07_00.jpg"},"geometry": {"type": "Point", "coordinates": [-77.2305166666667,39.8077]}},
{ "type": "Feature", "properties": {"name": "Ashland VA Artillery (Woolfolk)", "state": "VA","mon_type": "AM", "icon": "2","picture": "M10942007-10-15T17_50_39-06_00.jpg"},"geometry": {"type": "Point", "coordinates": [-77.256,39.7998166666667]}},
{ "type": "Feature", "properties": {"name": "Barksdale Brigade McLaws Div", "state": "MI","mon_type": "BM", "icon": "8","picture": "M10962007-10-12T09_26_40-06_00.jpg"},"geometry": {"type": "Point", "coordinates": [-77.2562,39.8028666666667]}},
{ "type": "Feature", "properties": {"name": "Barksdale Brigade McLaws Div", "state": "MI","mon_type": "BM", "icon": "8","picture": "M10952007-12-20T16_41_39-07_00.jpg"},"geometry": {"type": "Point", "coordinates": [-77.25025,39.8014333333333]}},
{ "type": "Feature", "properties": {"name": "Barlow Statue", "state": "OT","mon_type": "BZ", "icon": "14","picture": "M10972007-08-12T19_21_56-06_00.jpg"},"geometry": {"type": "Point", "coordinates": [-77.2264833333333,39.8454333333333]}},
{ "type": "Feature", "properties": {"name": "Befdord VA Artillery (Jordan)", "state": "VA","mon_type": "AM", "icon": "2","picture": "M10992007-10-14T18_18_03-06_00.jpg"},"geometry": {"type": "Point", "coordinates": [-77.2563166666667,39.8004]}},
{ "type": "Feature", "properties": {"name": "Benning Brigade Hood Div", "state": "GA","mon_type": "BM", "icon": "8","picture": "M11002007-11-07T09_24_27-07_00.jpg"},"geometry": {"type": "Point", "coordinates": [-77.2434833333333,39.7912833333333]}},
{ "type": "Feature", "properties": {"name": "Benning Brigade Hood Div", "state": "GA","mon_type": "BM", "icon": "8","picture": "M11012007-10-26T16_16_16-06_00.jpg"},"geometry": {"type": "Point", "coordinates": [-77.25415,39.7892333333333]}},
{ "type": "Feature", "properties": {"name": "Bisecker Woods", "state": "OT","mon_type": "BL", "icon": "19","picture": "M13722007-10-19T16_47_41-06_00.jpg"},"geometry": {"type": "Point", "coordinates": [-77.2554166666667,39.7946666666667]}},
{ "type": "Feature", "properties": {"name": "Branch NC Artillery", "state": "NC","mon_type": "AM", "icon": "2","picture": "M11042007-10-26T15_58_25-06_00.jpg"},"geometry": {"type": "Point", "coordinates": [-77.25425,39.7903666666667]}},
{ "type": "Feature", "properties": {"name": "Brian Farm", "state": "OT","mon_type": "HO", "icon": "16","picture": "M13812007-12-20T17_44_28-07_00.jpg"},"geometry": {"type": "Point", "coordinates": [-77.2354833333333,39.8155]}},
{ "type": "Feature", "properties": {"name": "Brian House", "state": "OT","mon_type": "HO", "icon": "16","picture": "M13802007-12-20T17_44_18-07_00.jpg"},"geometry": {"type": "Point", "coordinates": [-77.2350833333333,39.8155833333333]}},
{ "type": "Feature", "properties": {"name": "Brockenbough Brigade Heth Div", "state": "VA","mon_type": "BM", "icon": "8","picture": "M11052007-09-30T17_44_00-06_00.jpg"},"geometry": {"type": "Point", "coordinates": [-77.24725,39.8192666666667]}},
{ "type": "Feature", "properties": {"name": "Brooke VA Artillery", "state": "VA","mon_type": "AM", "icon": "2","picture": "M11062007-10-15T17_56_14-06_00.jpg"},"geometry": {"type": "Point", "coordinates": [-77.2501833333333,39.8146]}},
{ "type": "Feature", "properties": {"name": "Brooks SC Artillery (Rhett)", "state": "SC","mon_type": "AM", "icon": "2","picture": "M11072007-10-14T18_18_12-06_00.jpg"},"geometry": {"type": "Point", "coordinates": [-77.2561166666667,39.80395]}},
{ "type": "Feature", "properties": {"name": "Buford Statue", "state": "OT","mon_type": "BZ", "icon": "14","picture": "M11082007-08-03T07_43_43-06_00.jpg"},"geometry": {"type": "Point", "coordinates": [-77.25165,39.8379166666667]}},
{ "type": "Feature", "properties": {"name": "Cabells Artiller Brigade (McClaws)", "state": "VA","mon_type": "AM", "icon": "2","picture": "M11092007-10-19T16_26_31-06_00.jpg"},"geometry": {"type": "Point", "coordinates": [-77.2555666666667,39.7970333333333]}},
{ "type": "Feature", "properties": {"name": "Candy\\'s Brigade", "state": "OT","mon_type": "BM", "icon": "11","picture": "M11112008-01-06T17_30_41-07_00.jpg"},"geometry": {"type": "Point", "coordinates": [-77.2343833333333,39.7974333333333]}},
{ "type": "Feature", "properties": {"name": "Carters Artillery Brigade (Rodes)", "state": "VA","mon_type": "AM", "icon": "2","picture": "M11132007-08-09T16_08_15-06_00.jpg"},"geometry": {"type": "Point", "coordinates": [-77.2428833333333,39.8478833333333]}},
{ "type": "Feature", "properties": {"name": "Cavalry Corps (US)", "state": "US","mon_type": "CM", "icon": "6","picture": "M11142008-01-05T16_12_27-07_00.jpg"},"geometry": {"type": "Point", "coordinates": [-77.2349,39.8081]}},
{ "type": "Feature", "properties": {"name": "Chapman Killed Marker", "state": "CT","mon_type": "OT", "icon": "19","picture": "M11162007-10-31T15_10_00-06_00.jpg"},"geometry": {"type": "Point", "coordinates": [-77.2454666666667,39.7961833333333]}},
{ "type": "Feature", "properties": {"name": "Charlotte NC Artillery (Graham)", "state": "NC","mon_type": "AM", "icon": "2","picture": "M11172007-09-30T17_44_10-06_00.jpg"},"geometry": {"type": "Point", "coordinates": [-77.2478666666667,39.81805]}},
{ "type": "Feature", "properties": {"name": "Chesapeak MD Artillery (Brown)", "state": "MD","mon_type": "AM", "icon": "2","picture": "M11192007-08-19T16_34_01-06_00.jpg"},"geometry": {"type": "Point", "coordinates": [-77.21325,39.8284833333333]}},
{ "type": "Feature", "properties": {"name": "Company A Sumter GA Artillery (Ross)", "state": "GA","mon_type": "AM", "icon": "2","picture": "M13632007-09-30T17_45_15-06_00.jpg"},"geometry": {"type": "Point", "coordinates": [-77.24725,39.8190666666667]}},
{ "type": "Feature", "properties": {"name": "Company B Sumter GA Artillery (Patterson)", "state": "GA","mon_type": "AM", "icon": "2","picture": "M13682007-10-11T15_50_17-06_00.jpg"},"geometry": {"type": "Point", "coordinates": [-77.2564166666667,39.8064333333333]}},
{ "type": "Feature", "properties": {"name": "Company C Sumter GA Artillery (Wingfield)", "state": "GA","mon_type": "AM", "icon": "2","picture": "M13642007-09-30T17_45_25-06_00.jpg"},"geometry": {"type": "Point", "coordinates": [-77.2477,39.8183]}},
{ "type": "Feature", "properties": {"name": "Corby Marker (1963 ND Alumni Club)", "state": "IN","mon_type": "OT", "icon": "19","picture": "M11232007-07-20T19_03_00-06_00.jpg"},"geometry": {"type": "Point", "coordinates": [-77.2343833333333,39.8034333333333]}},
{ "type": "Feature", "properties": {"name": "Corby Statue", "state": "IN","mon_type": "BZ", "icon": "14","picture": "M11242007-07-20T19_03_10-06_00.jpg"},"geometry": {"type": "Point", "coordinates": [-77.2344333333333,39.8034333333333]}},
{ "type": "Feature", "properties": {"name": "Crawford Statue", "state": "OT","mon_type": "BZ", "icon": "14","picture": "M11262007-11-07T08_18_38-07_00.jpg"},"geometry": {"type": "Point", "coordinates": [-77.2388333333333,39.7959666666667]}},
{ "type": "Feature", "properties": {"name": "Crenshaw VA Artillery", "state": "VA","mon_type": "AM", "icon": "2","picture": "M11272007-09-23T09_32_31-06_00.jpg"},"geometry": {"type": "Point", "coordinates": [-77.2466166666667,39.8200333333333]}},
{ "type": "Feature", "properties": {"name": "Cushing Killed", "state": "OT","mon_type": "OT", "icon": "19","picture": "M11282007-12-24T15_59_14-07_00.jpg"},"geometry": {"type": "Point", "coordinates": [-77.2357333333333,39.8131666666667]}},
{ "type": "Feature", "properties": {"name": "Dances Artillery Brigade Reserve 2 Corps", "state": "VA","mon_type": "AM", "icon": "2","picture": "NA"},"geometry": {"type": "Point", "coordinates": [-76.2442166666667,39.8301833333333]}},
{ "type": "Feature", "properties": {"name": "Daniel Brigade Rodes Div", "state": "NC","mon_type": "BM", "icon": "8","picture": "M11302007-08-26T08_23_35-06_00.jpg"},"geometry": {"type": "Point", "coordinates": [-77.2161,39.8190833333333]}},
{ "type": "Feature", "properties": {"name": "Daniel Brigade Rodes Div", "state": "NC","mon_type": "BM", "icon": "8","picture": "M11312007-08-08T13_46_18-06_00.jpg"},"geometry": {"type": "Point", "coordinates": [-77.2435166666667,39.8488]}},
{ "type": "Feature", "properties": {"name": "Danville VA Artillery (Rice) (July 2-4)", "state": "VA","mon_type": "AM", "icon": "2","picture": "M11332007-09-06T14_46_51-06_00.jpg"},"geometry": {"type": "Point", "coordinates": [-77.2444666666667,39.82765]}},
{ "type": "Feature", "properties": {"name": "Davis Brigade Heth Div", "state": "MS","mon_type": "BM", "icon": "8","picture": "M11342007-08-05T14_11_20-06_00.jpg"},"geometry": {"type": "Point", "coordinates": [-77.2478,39.83835]}},
{ "type": "Feature", "properties": {"name": "Davis Brigade Heth Div", "state": "MS","mon_type": "BM", "icon": "8","picture": "M11352007-09-30T17_44_18-06_00.jpg"},"geometry": {"type": "Point", "coordinates": [-77.2478333333333,39.8183166666667]}},
{ "type": "Feature", "properties": {"name": "Dearings Artillery Brigade (Pickett)", "state": "VA","mon_type": "AM", "icon": "2","picture": "M11362007-10-11T15_49_44-06_00.jpg"},"geometry": {"type": "Point", "coordinates": [-77.2561166666667,39.8050166666667]}},
{ "type": "Feature", "properties": {"name": "Delaware State Memorial (2000)", "state": "DE","mon_type": "ST", "icon": "18","picture": "M11372007-07-21T16_32_02-06_00.jpg"},"geometry": {"type": "Point", "coordinates": [-77.2324833333333,39.8160666666667]}},
{ "type": "Feature", "properties": {"name": "Doles Brigade Rodes Div", "state": "NC","mon_type": "BM", "icon": "8","picture": "M11382007-08-12T12_32_25-06_00.jpg"},"geometry": {"type": "Point", "coordinates": [-77.2322833333333,39.843]}},
{ "type": "Feature", "properties": {"name": "Donaldsonville LA Artillery (Maurin)", "state": "LA","mon_type": "AM", "icon": "2","picture": "M11392007-09-06T14_47_01-06_00.jpg"},"geometry": {"type": "Point", "coordinates": [-77.2449,39.8261]}},
{ "type": "Feature", "properties": {"name": "Doubleday Statue", "state": "OT","mon_type": "BZ", "icon": "14","picture": "M11402007-08-02T14_41_41-06_00.jpg"},"geometry": {"type": "Point", "coordinates": [-77.25075,39.8331]}},
{ "type": "Feature", "properties": {"name": "Early Div 2 Corps (CSA)", "state": "OT","mon_type": "DM", "icon": "7","picture": "M11412007-08-28T08_13_08-06_00.jpg"},"geometry": {"type": "Point", "coordinates": [-77.2265666666667,39.82905]}},
{ "type": "Feature", "properties": {"name": "Engineers Brigade (Benham)", "state": "OT","mon_type": "EN", "icon": "11","picture": "M11422008-01-05T16_12_39-07_00.jpg"},"geometry": {"type": "Point", "coordinates": [-77.233,39.8081]}},
{ "type": "Feature", "properties": {"name": "Eshlemans Artillery Brigade Reserve 1 Corps", "state": "OT","mon_type": "AM", "icon": "2","picture": "M11432007-10-12T09_26_48-06_00.jpg"},"geometry": {"type": "Point", "coordinates": [-77.2560333333333,39.8030833333333]}},
{ "type": "Feature", "properties": {"name": "Excelsior Brigade", "state": "NY","mon_type": "BM", "icon": "8","picture": "M13772007-11-14T16_26_56-07_00.jpg"},"geometry": {"type": "Point", "coordinates": [-77.2475166666667,39.8017833333333]}},
{ "type": "Feature", "properties": {"name": "Excelsior Field", "state": "OT","mon_type": "BL", "icon": "19","picture": "M13782007-11-14T16_27_06-07_00.jpg"},"geometry": {"type": "Point", "coordinates": [-77.24715,39.8021]}},
{ "type": "Feature", "properties": {"name": "Fauquier VA Artillery (Stribling)", "state": "VA","mon_type": "AM", "icon": "2","picture": "M11462007-10-12T09_26_56-06_00.jpg"},"geometry": {"type": "Point", "coordinates": [-77.2560166666667,39.8041666666667]}},
{ "type": "Feature", "properties": {"name": "FL State Memorial", "state": "FL","mon_type": "ST", "icon": "18","picture": "M11472007-07-17T17_42_13-06_00.jpg"},"geometry": {"type": "Point", "coordinates": [-77.2540166666667,39.8101333333333]}},
{ "type": "Feature", "properties": {"name": "Fluvanna VA Artillery (Massie)", "state": "VA","mon_type": "AM", "icon": "2","picture": "M11482007-08-19T16_34_10-06_00.jpg"},"geometry": {"type": "Point", "coordinates": [-77.2123166666667,39.8305]}},
{ "type": "Feature", "properties": {"name": "Fredericksburg VA Artillery (Marye)", "state": "VA","mon_type": "AM", "icon": "2","picture": "M11492007-09-23T09_32_40-06_00.jpg"},"geometry": {"type": "Point", "coordinates": [-77.247,39.81955]}},
{ "type": "Feature", "properties": {"name": "G. Weikert House", "state": "OT","mon_type": "HO", "icon": "16","picture": "M13862008-01-06T17_31_00-07_00.jpg"},"geometry": {"type": "Point", "coordinates": [-77.2346666666667,39.8020666666667]}},
{ "type": "Feature", "properties": {"name": "GA State Memorial", "state": "GA","mon_type": "ST", "icon": "18","picture": "M11512007-07-20T17_39_31-06_00.jpg"},"geometry": {"type": "Point", "coordinates": [-77.2560166666667,39.7988666666667]}},
{ "type": "Feature", "properties": {"name": "Garnett Brigade Pickett Div", "state": "VA","mon_type": "BM", "icon": "8","picture": "M11522007-10-06T09_09_42-06_00.jpg"},"geometry": {"type": "Point", "coordinates": [-77.2512833333333,39.8134166666667]}},
{ "type": "Feature", "properties": {"name": "Garnetts Artillery Brigade (Heth)", "state": "OT","mon_type": "AM", "icon": "2","picture": "M11532007-09-23T15_13_02-06_00.jpg"},"geometry": {"type": "Point", "coordinates": [-77.2451333333333,39.8241666666667]}},
{ "type": "Feature", "properties": {"name": "Geary Statue", "state": "OT","mon_type": "BZ", "icon": "14","picture": "M11542007-09-03T18_12_00-06_00.jpg"},"geometry": {"type": "Point", "coordinates": [-77.2199333333333,39.81725]}},
{ "type": "Feature", "properties": {"name": "German SC Artillery (Bachman)", "state": "SC","mon_type": "AM", "icon": "2","picture": "M11562007-10-26T15_58_34-06_00.jpg"},"geometry": {"type": "Point", "coordinates": [-77.2538666666667,39.78905]}},
{ "type": "Feature", "properties": {"name": "Gettysburg Battlefield Preservation Assoc. Plaque", "state": "OT","mon_type": "OT", "icon": "19","picture": "M11572007-08-10T16_02_14-06_00.jpg"},"geometry": {"type": "Point", "coordinates": [-77.23565,39.8406833333333]}},
{ "type": "Feature", "properties": {"name": "Gettysburg National Military Park Plaque", "state": "OT","mon_type": "OT", "icon": "19","picture": "M11582007-12-20T17_03_40-07_00.jpg"},"geometry": {"type": "Point", "coordinates": [-77.2346833333333,39.8170666666667]}},
{ "type": "Feature", "properties": {"name": "Gibbon Statue", "state": "OT","mon_type": "BZ", "icon": "14","picture": "M11592007-12-28T17_59_04-07_00.jpg"},"geometry": {"type": "Point", "coordinates": [-77.2354166666667,39.8110166666667]}},
{ "type": "Feature", "properties": {"name": "Gordon Brigade Early Div", "state": "GA","mon_type": "BM", "icon": "8","picture": "M11602007-08-26T08_23_44-06_00.jpg"},"geometry": {"type": "Point", "coordinates": [-77.22595,39.82825]}},
{ "type": "Feature", "properties": {"name": "Gordon Brigade Early Div", "state": "GA","mon_type": "BM", "icon": "8","picture": "M11612007-08-12T19_22_04-06_00.jpg"},"geometry": {"type": "Point", "coordinates": [-77.2265333333333,39.8449166666667]}},
{ "type": "Feature", "properties": {"name": "Grand Army of the Republic Memorial", "state": "OT","mon_type": "OT", "icon": "18","picture": "M13422007-12-20T17_44_06-07_00.jpg"},"geometry": {"type": "Point", "coordinates": [-77.2348166666667,39.8161333333333]}},
{ "type": "Feature", "properties": {"name": "Greene Statue", "state": "OT","mon_type": "BZ", "icon": "14","picture": "M11622007-08-26T17_41_39-06_00.jpg"},"geometry": {"type": "Point", "coordinates": [-77.2201333333333,39.8198666666667]}},
{ "type": "Feature", "properties": {"name": "H.T. Collis Monument", "state": "OT","mon_type": "OT", "icon": "14","picture": "M11642007-08-17T11_44_56-06_00.jpg"},"geometry": {"type": "Point", "coordinates": [-77.2319333333333,39.8199333333333]}},
{ "type": "Feature", "properties": {"name": "Hampden VA Artillery (Caskie)", "state": "VA","mon_type": "AM", "icon": "2","picture": "M11652007-10-11T15_49_52-06_00.jpg"},"geometry": {"type": "Point", "coordinates": [-77.2560666666667,39.8047166666667]}},
{ "type": "Feature", "properties": {"name": "Hancock Statue", "state": "OT","mon_type": "BZ", "icon": "14","picture": "M11672007-07-21T17_58_42-06_00.jpg"},"geometry": {"type": "Point", "coordinates": [-77.2288666666667,39.82135]}},
{ "type": "Feature", "properties": {"name": "Hancock Wounding Site", "state": "OT","mon_type": "OT", "icon": "19","picture": "M11682007-12-29T14_48_08-07_00.jpg"},"geometry": {"type": "Point", "coordinates": [-77.23705,39.8087833333333]}},
{ "type": "Feature", "properties": {"name": "Hardaway AL Artillery (Hurt)", "state": "AL","mon_type": "AM", "icon": "2","picture": "M11702007-08-08T13_46_28-06_00.jpg"},"geometry": {"type": "Point", "coordinates": [-77.2436333333333,39.84895]}},
{ "type": "Feature", "properties": {"name": "Hays Brigade Early Div", "state": "LA","mon_type": "BM", "icon": "1","picture": "M11722007-08-26T08_23_54-06_00.jpg"},"geometry": {"type": "Point", "coordinates": [-77.2263,39.8286833333333]}},
{ "type": "Feature", "properties": {"name": "Hays Statue", "state": "OT","mon_type": "BZ", "icon": "14","picture": "M11732007-12-20T17_43_55-07_00.jpg"},"geometry": {"type": "Point", "coordinates": [-77.2345666666667,39.81685]}},
{ "type": "Feature", "properties": {"name": "Hazlett & Weed Killed", "state": "OT","mon_type": "OT", "icon": "19","picture": "M11752007-12-27T16_50_12-07_00.jpg"},"geometry": {"type": "Point", "coordinates": [-77.2365,39.7921333333333]}},
{ "type": "Feature", "properties": {"name": "Henrys Artillery Brigade (Hood)", "state": "OT","mon_type": "AM", "icon": "2","picture": "M11762007-10-26T15_58_46-06_00.jpg"},"geometry": {"type": "Point", "coordinates": [-77.2539166666667,39.7879]}},
{ "type": "Feature", "properties": {"name": "Heth Div 3 Corps (CSA)", "state": "OT","mon_type": "DM", "icon": "1","picture": "M11772007-09-30T17_44_27-06_00.jpg"},"geometry": {"type": "Point", "coordinates": [-77.2477,39.8190666666667]}},
{ "type": "Feature", "properties": {"name": "High Water Mark", "state": "OT","mon_type": "OT", "icon": "19","picture": "M11782007-12-24T15_59_22-07_00.jpg"},"geometry": {"type": "Point", "coordinates": [-77.2356833333333,39.81245]}},
{ "type": "Feature", "properties": {"name": "Hill HQ", "state": "OT","mon_type": "HQ", "icon": "9","picture": "M11792007-09-30T17_44_38-06_00.jpg"},"geometry": {"type": "Point", "coordinates": [-77.24815,39.8179166666667]}},
{ "type": "Feature", "properties": {"name": "Hoke (Avery) Brigade Early Div", "state": "NC","mon_type": "BM", "icon": "1","picture": "M11802007-08-26T08_24_19-06_00.jpg"},"geometry": {"type": "Point", "coordinates": [-77.2256666666667,39.8279666666667]}},
{ "type": "Feature", "properties": {"name": "Hood Div 1 Corps (CSA)", "state": "OT","mon_type": "DM", "icon": "1","picture": "M11812007-10-26T15_58_55-06_00.jpg"},"geometry": {"type": "Point", "coordinates": [-77.2543666666667,39.7901]}},
{ "type": "Feature", "properties": {"name": "Howard Statue", "state": "OT","mon_type": "BZ", "icon": "14","picture": "M11832007-07-21T16_58_47-06_00.jpg"},"geometry": {"type": "Point", "coordinates": [-77.2289166666667,39.8219]}},
{ "type": "Feature", "properties": {"name": "Huger VA Artillery (Moore)", "state": "VA","mon_type": "AM", "icon": "2","picture": "M11842007-09-23T09_32_50-06_00.jpg"},"geometry": {"type": "Point", "coordinates": [-77.2451833333333,39.8228333333333]}},
{ "type": "Feature", "properties": {"name": "Hummelbaugh Farm (Field Hospital)", "state": "OT","mon_type": "HM", "icon": "15","picture": "M13852008-01-05T16_13_16-07_00.jpg"},"geometry": {"type": "Point", "coordinates": [-77.2305,39.8079666666667]}},
{ "type": "Feature", "properties": {"name": "Hummelbaugh House", "state": "OT","mon_type": "HO", "icon": "16","picture": "M13842008-01-05T16_12_57-07_00.jpg"},"geometry": {"type": "Point", "coordinates": [-77.2316166666667,39.8078833333333]}},
{ "type": "Feature", "properties": {"name": "Humphreys Statue", "state": "OT","mon_type": "BZ", "icon": "14","picture": "M11852008-01-09T15_32_16-07_00.jpg"},"geometry": {"type": "Point", "coordinates": [-77.2438833333333,39.8082]}},
{ "type": "Feature", "properties": {"name": "Imboden Cavalry Brigade", "state": "VA","mon_type": "CM", "icon": "3","picture": "M11872007-08-06T16_28_25-06_00.jpg"},"geometry": {"type": "Point", "coordinates": [-77.2529666666667,39.8273]}},
{ "type": "Feature", "properties": {"name": "IN State Memorial", "state": "IN","mon_type": "ST", "icon": "18","picture": "M11882007-07-17T17_42_37-06_00.jpg"},"geometry": {"type": "Point", "coordinates": [-77.2164166666667,39.8141666666667]}},
{ "type": "Feature", "properties": {"name": "Irish Brigade", "state": "NY","mon_type": "BM", "icon": "8","picture": "M13762007-11-14T16_14_21-07_00.jpg"},"geometry": {"type": "Point", "coordinates": [-77.2450833333333,39.7970833333333]}},
{ "type": "Feature", "properties": {"name": "Iverson Brigade Rodes Div", "state": "NC","mon_type": "BM", "icon": "1","picture": "M11892007-08-09T16_08_26-06_00.jpg"},"geometry": {"type": "Point", "coordinates": [-77.2431,39.8479]}},
{ "type": "Feature", "properties": {"name": "J. Weikert House", "state": "OT","mon_type": "HO", "icon": "16","picture": "M13882008-01-08T15_36_01-07_00.jpg"},"geometry": {"type": "Point", "coordinates": [-77.2372166666667,39.79775]}},
{ "type": "Feature", "properties": {"name": "Jeff Davis AL Artillery (Reese)", "state": "AL","mon_type": "AM", "icon": "2","picture": "M11912007-08-09T16_08_44-06_00.jpg"},"geometry": {"type": "Point", "coordinates": [-77.2418833333333,39.8473833333333]}},
{ "type": "Feature", "properties": {"name": "Jennie Wade Grave", "state": "OT","mon_type": "BZ", "icon": "14","picture": "M13462007-08-18T18_31_12-06_00.jpg"},"geometry": {"type": "Point", "coordinates": [-77.2303833333333,39.8196833333333]}},
{ "type": "Feature", "properties": {"name": "John Burns Statue", "state": "OT","mon_type": "BZ", "icon": "14","picture": "M13432007-08-02T16_13_19-06_00.jpg"},"geometry": {"type": "Point", "coordinates": [-77.2527333333333,39.83595]}},
{ "type": "Feature", "properties": {"name": "John P. Nicholson", "state": "OT","mon_type": "OT", "icon": "19","picture": "M11932007-12-21T15_00_24-07_00.jpg"},"geometry": {"type": "Point", "coordinates": [-77.2352333333333,39.8146166666667]}},
{ "type": "Feature", "properties": {"name": "Johnson Div 2 Corps (CSA)", "state": "NA","mon_type": "DM", "icon": "7","picture": "M11942007-08-26T08_24_05-06_00.jpg"},"geometry": {"type": "Point", "coordinates": [-77.2169333333333,39.82045]}},
{ "type": "Feature", "properties": {"name": "Johnson VA Artillery (July 2-4)", "state": "VA","mon_type": "AM", "icon": "2","picture": "M11962007-09-06T14_48_16-06_00.jpg"},"geometry": {"type": "Point", "coordinates": [-77.2446666666667,39.8270333333333]}},
{ "type": "Feature", "properties": {"name": "Jones Brigade Johnson Div", "state": "VA","mon_type": "BM", "icon": "8","picture": "M11982007-08-26T08_28_38-06_00.jpg"},"geometry": {"type": "Point", "coordinates": [-77.2201333333333,39.8224333333333]}},
{ "type": "Feature", "properties": {"name": "Jones Cavalry Brigade", "state": "VA","mon_type": "CM", "icon": "3","picture": "M12002007-08-06T16_28_37-06_00.jpg"},"geometry": {"type": "Point", "coordinates": [-77.25295,39.8271333333333]}},
{ "type": "Feature", "properties": {"name": "Kemper Brigade Pickett Div", "state": "VA","mon_type": "BM", "icon": "8","picture": "M12012007-10-06T09_09_50-06_00.jpg"},"geometry": {"type": "Point", "coordinates": [-77.2524333333333,39.812]}},
{ "type": "Feature", "properties": {"name": "Kershaw Brigade McLaws Div", "state": "SC","mon_type": "BM", "icon": "8","picture": "M12022007-10-31T15_10_08-06_00.jpg"},"geometry": {"type": "Point", "coordinates": [-77.2475666666667,39.79575]}},
{ "type": "Feature", "properties": {"name": "Kershaw Brigade McLaws Div", "state": "SC","mon_type": "BM", "icon": "8","picture": "M12042007-10-19T16_26_40-06_00.jpg"},"geometry": {"type": "Point", "coordinates": [-77.25595,39.7985666666667]}},
{ "type": "Feature", "properties": {"name": "King William VA Artillery (Carter)", "state": "VA","mon_type": "AM", "icon": "2","picture": "M12052007-08-08T13_46_41-06_00.jpg"},"geometry": {"type": "Point", "coordinates": [-77.2438333333333,39.8488333333333]}},
{ "type": "Feature", "properties": {"name": "Klingel House", "state": "OT","mon_type": "HO", "icon": "16","picture": "M13892008-01-09T15_32_54-07_00.jpg"},"geometry": {"type": "Point", "coordinates": [-77.2464333333333,39.8063333333333]}},
{ "type": "Feature", "properties": {"name": "KY State Memorial", "state": "KY","mon_type": "ST", "icon": "18","picture": "M12062007-07-23T17_36_23-06_00.jpg"},"geometry": {"type": "Point", "coordinates": [-77.23108333,39.81975]}},
{ "type": "Feature", "properties": {"name": "LA State Memorial", "state": "LA","mon_type": "ST", "icon": "18","picture": "M12092007-07-17T17_43_03-06_00.jpg"},"geometry": {"type": "Point", "coordinates": [-77.2558333333333,39.8029666666667]}},
{ "type": "Feature", "properties": {"name": "Lane Brigade Pender Div", "state": "NC","mon_type": "BM", "icon": "8","picture": "M12102007-09-23T09_33_01-06_00.jpg"},"geometry": {"type": "Point", "coordinates": [-77.2463333333333,39.8207166666667]}},
{ "type": "Feature", "properties": {"name": "Lanes Artillery Brigade (Anderson)", "state": "OT","mon_type": "AM", "icon": "2","picture": "M12112007-09-30T17_44_46-06_00.jpg"},"geometry": {"type": "Point", "coordinates": [-77.2474833333333,39.8187]}},
{ "type": "Feature", "properties": {"name": "Latimers Artillery Battalion", "state": "OT","mon_type": "AM", "icon": "2","picture": "M12122007-08-19T16_34_19-06_00.jpg"},"geometry": {"type": "Point", "coordinates": [-77.2138166666667,39.8274]}},
{ "type": "Feature", "properties": {"name": "Law Brigade Hood Div", "state": "AL","mon_type": "BM", "icon": "8","picture": "M12132007-10-26T15_59_04-06_00.jpg"},"geometry": {"type": "Point", "coordinates": [-77.2541333333333,39.7870833333333]}},
{ "type": "Feature", "properties": {"name": "Law Brigade Hood Div", "state": "AL","mon_type": "BM", "icon": "8","picture": "M12142007-10-24T09_15_38-06_00.jpg"},"geometry": {"type": "Point", "coordinates": [-77.2375,39.7896833333333]}},
{ "type": "Feature", "properties": {"name": "Lee VA Artillery (Raine)", "state": "VA","mon_type": "AM", "icon": "2","picture": "M12162007-08-19T16_34_28-06_00.jpg"},"geometry": {"type": "Point", "coordinates": [-77.2137833333333,39.8262166666667]}},
{ "type": "Feature", "properties": {"name": "Leister Farm", "state": "OT","mon_type": "HO", "icon": "16","picture": "M13822007-12-22T17_30_09-07_00.jpg"},"geometry": {"type": "Point", "coordinates": [-77.2321,39.8144833333333]}},
{ "type": "Feature", "properties": {"name": "Letcher VA Artillery (Brander)", "state": "VA","mon_type": "AM", "icon": "2","picture": "M12182007-09-23T09_33_09-06_00.jpg"},"geometry": {"type": "Point", "coordinates": [-77.2456666666667,39.8214833333333]}},
{ "type": "Feature", "properties": {"name": "Lewis VA Artillery (Lewis)", "state": "VA","mon_type": "AM", "icon": "2","picture": "M12192007-09-06T14_48_38-06_00.jpg"},"geometry": {"type": "Point", "coordinates": [-77.2449666666667,39.82535]}},
{ "type": "Feature", "properties": {"name": "Lincoln Speech Memorial", "state": "OT","mon_type": "OT", "icon": "19","picture": "M12202007-08-17T11_45_04-06_00.jpg"},"geometry": {"type": "Point", "coordinates": [-77.2319,39.81755]}},
{ "type": "Feature", "properties": {"name": "Little Round Top", "state": "OT","mon_type": "BL", "icon": "19","picture": "M13832007-12-27T16_51_07-07_00.jpg"},"geometry": {"type": "Point", "coordinates": [-77.23635,39.7920166666667]}},
{ "type": "Feature", "properties": {"name": "Longstreet HQ", "state": "OT","mon_type": "HQ", "icon": "9","picture": "M12212007-10-14T18_18_20-06_00.jpg"},"geometry": {"type": "Point", "coordinates": [-77.2564333333333,39.8001]}},
{ "type": "Feature", "properties": {"name": "Longstreet Statue", "state": "OT","mon_type": "BZ", "icon": "13","picture": "M12222007-07-21T18_13_33-06_00.jpg"},"geometry": {"type": "Point", "coordinates": [-77.2565666666667,39.8058]}},
{ "type": "Feature", "properties": {"name": "Loyal Legion of US (12.265 Acres)", "state": "OT","mon_type": "OT", "icon": "19","picture": "M12232007-08-05T14_11_31-06_00.jpg"},"geometry": {"type": "Point", "coordinates": [-77.2474333333333,39.8391666666667]}},
{ "type": "Feature", "properties": {"name": "Loyal Legion of US (7.45 Acres)", "state": "OT","mon_type": "OT", "icon": "19","picture": "M12242007-08-05T14_11_42-06_00.jpg"},"geometry": {"type": "Point", "coordinates": [-77.2471166666667,39.83915]}},
{ "type": "Feature", "properties": {"name": "Madison LA Artillery (Moody)", "state": "LA","mon_type": "AM", "icon": "2","picture": "M12252007-10-14T18_18_28-06_00.jpg"},"geometry": {"type": "Point", "coordinates": [-77.2561333333333,39.8017833333333]}},
{ "type": "Feature", "properties": {"name": "Madison MS Artillery (Ward)", "state": "MS","mon_type": "AM", "icon": "2","picture": "M12262007-10-15T18_02_30-06_00.jpg"},"geometry": {"type": "Point", "coordinates": [-77.2503,39.8144666666667]}},
{ "type": "Feature", "properties": {"name": "Mahone Brigade Anderson Div.", "state": "NC","mon_type": "BM", "icon": "8","picture": "M12272007-10-06T09_09_58-06_00.jpg"},"geometry": {"type": "Point", "coordinates": [-77.2495666666667,39.8157833333333]}},
{ "type": "Feature", "properties": {"name": "McLaws Div 1 Corps (CSA)", "state": "OT","mon_type": "DM", "icon": "7","picture": "M12302007-10-19T16_47_32-06_00.jpg"},"geometry": {"type": "Point", "coordinates": [-77.2562,39.7993166666667]}},
{ "type": "Feature", "properties": {"name": "McMillan House", "state": "OT","mon_type": "HO", "icon": "16","picture": "M13612007-09-23T09_34_46-06_00.jpg"},"geometry": {"type": "Point", "coordinates": [-77.2452,39.8236333333333]}},
{ "type": "Feature", "properties": {"name": "McMillan Woods", "state": "OT","mon_type": "BL", "icon": "19","picture": "M13622007-09-23T09_34_56-06_00.jpg"},"geometry": {"type": "Point", "coordinates": [-77.2465,39.8205]}},
{ "type": "Feature", "properties": {"name": "MD State Memorial (1994)", "state": "MD","mon_type": "ST", "icon": "18","picture": "M12322007-07-17T17_43_26-06_00.jpg"},"geometry": {"type": "Point", "coordinates": [-77.2324666666667,39.8163]}},
{ "type": "Feature", "properties": {"name": "Meade HQ", "state": "OT","mon_type": "HQ", "icon": "12","picture": "M12332007-12-22T17_29_51-07_00.jpg"},"geometry": {"type": "Point", "coordinates": [-77.2323333333333,39.8144333333333]}},
{ "type": "Feature", "properties": {"name": "Meade Statue", "state": "OT","mon_type": "BZ", "icon": "14","picture": "M12342007-07-21T16_14_53-06_00.jpg"},"geometry": {"type": "Point", "coordinates": [-77.2348333333333,39.8139166666667]}},
{ "type": "Feature", "properties": {"name": "Milledges GA Artillery (Milledge)", "state": "GA","mon_type": "AM", "icon": "2","picture": "M12362007-08-19T16_34_38-06_00.jpg"},"geometry": {"type": "Point", "coordinates": [-77.2126333333333,39.82965]}},
{ "type": "Feature", "properties": {"name": "Morris VA Artillery (Page)", "state": "VA","mon_type": "AM", "icon": "2","picture": "M12372007-08-09T16_08_54-06_00.jpg"},"geometry": {"type": "Point", "coordinates": [-77.2423,39.8473333333333]}},
{ "type": "Feature", "properties": {"name": "MS State Memorial", "state": "MS","mon_type": "ST", "icon": "18","picture": "M12382007-07-17T17_43_37-06_00.jpg"},"geometry": {"type": "Point", "coordinates": [-77.25585,39.8024]}},
{ "type": "Feature", "properties": {"name": "NC State Memorial", "state": "NC","mon_type": "ST", "icon": "18","picture": "M12392007-07-20T16_11_19-06_00.jpg"},"geometry": {"type": "Point", "coordinates": [-77.2472666666667,39.8183166666667]}},
{ "type": "Feature", "properties": {"name": "Nelsons Artillery Battalion", "state": "VA","mon_type": "AM", "icon": "2","picture": "M12402007-08-19T16_34_46-06_00.jpg"},"geometry": {"type": "Point", "coordinates": [-77.2125833333333,39.8298333333333]}},
{ "type": "Feature", "properties": {"name": "Nicholls Brigade Johnson Div", "state": "LA","mon_type": "BM", "icon": "1","picture": "M12412007-08-26T08_24_48-06_00.jpg"},"geometry": {"type": "Point", "coordinates": [-77.2176666666667,39.8212333333333]}},
{ "type": "Feature", "properties": {"name": "NJ Brigade (1st 2nd 3rd 4th 15th NJ)", "state": "NJ","mon_type": "BM", "icon": "11","picture": "NA"},"geometry": {"type": "Point", "coordinates": [-77.2334833333333,39.8006333333333]}},
{ "type": "Feature", "properties": {"name": "NY State Auxiliary Memorial", "state": "NY","mon_type": "ST", "icon": "18","picture": "M12442008-01-06T17_30_50-07_00.jpg"},"geometry": {"type": "Point", "coordinates": [-77.23445,39.8043166666667]}},
{ "type": "Feature", "properties": {"name": "NY State Memorial", "state": "NY","mon_type": "ST", "icon": "18","picture": "M12452007-07-17T17_44_04-06_00.jpg"},"geometry": {"type": "Point", "coordinates": [-77.23045,39.8208166666667]}},
{ "type": "Feature", "properties": {"name": "Old Alms House Cemetery", "state": "OT","mon_type": "HO", "icon": "16","picture": "M13492007-09-02T09_13_54-06_00.jpg"},"geometry": {"type": "Point", "coordinates": [-77.2272666666667,39.8448666666667]}},
{ "type": "Feature", "properties": {"name": "Oneida County NY Cavalry", "state": "NY","mon_type": "CM", "icon": "6","picture": "M12482007-12-22T17_30_00-07_00.jpg"},"geometry": {"type": "Point", "coordinates": [-77.2323333333333,39.8145833333333]}},
{ "type": "Feature", "properties": {"name": "Orange VA Artillery (Fry)", "state": "VA","mon_type": "AM", "icon": "2","picture": "M12492007-08-09T16_09_20-06_00.jpg"},"geometry": {"type": "Point", "coordinates": [-77.2432833333333,39.8481333333333]}},
{ "type": "Feature", "properties": {"name": "O\\'Neal Brigade Rodes Div", "state": "AL","mon_type": "BM", "icon": "8","picture": "M12462007-08-26T08_25_00-06_00.jpg"},"geometry": {"type": "Point", "coordinates": [-77.2167833333333,39.8197833333333]}},
{ "type": "Feature", "properties": {"name": "O\\'Neal Brigade Rodes Div", "state": "AL","mon_type": "BM", "icon": "8","picture": "M12472007-08-09T16_09_04-06_00.jpg"},"geometry": {"type": "Point", "coordinates": [-77.2424,39.8462]}},
{ "type": "Feature", "properties": {"name": "P Synder House", "state": "OT","mon_type": "HO", "icon": "16","picture": "M13732007-10-19T16_47_50-06_00.jpg"},"geometry": {"type": "Point", "coordinates": [-77.2546333333333,39.7928666666667]}},
{ "type": "Feature", "properties": {"name": "PA State Memorial", "state": "PA","mon_type": "ST", "icon": "18","picture": "M12502007-07-21T16_10_28-06_00.jpg"},"geometry": {"type": "Point", "coordinates": [-77.23545,39.80765]}},
{ "type": "Feature", "properties": {"name": "Palmer Killed", "state": "OT","mon_type": "OT", "icon": "19","picture": "M12512007-08-26T17_59_10-06_00.jpg"},"geometry": {"type": "Point", "coordinates": [-77.2193666666667,39.8202]}},
{ "type": "Feature", "properties": {"name": "Palmetto SC Artillery", "state": "SC","mon_type": "AM", "icon": "2","picture": "M12522007-10-26T15_59_12-06_00.jpg"},"geometry": {"type": "Point", "coordinates": [-77.2540666666667,39.7867333333333]}},
{ "type": "Feature", "properties": {"name": "Pardee Field", "state": "OT","mon_type": "OT", "icon": "19","picture": "M12532007-09-02T09_54_58-06_00.jpg"},"geometry": {"type": "Point", "coordinates": [-77.2196333333333,39.8157]}},
{ "type": "Feature", "properties": {"name": "Parker VA Artillery", "state": "VA","mon_type": "AM", "icon": "2","picture": "M12542007-10-14T18_18_39-06_00.jpg"},"geometry": {"type": "Point", "coordinates": [-77.2562833333333,39.80085]}},
{ "type": "Feature", "properties": {"name": "Peace Light Memorial", "state": "OT","mon_type": "OT", "icon": "18","picture": "M12552007-08-09T16_09_32-06_00.jpg"},"geometry": {"type": "Point", "coordinates": [-77.2435,39.8485166666667]}},
{ "type": "Feature", "properties": {"name": "Pee Dee SC Artillery (Zimmerman)", "state": "SC","mon_type": "AM", "icon": "2","picture": "M12562007-09-23T09_33_31-06_00.jpg"},"geometry": {"type": "Point", "coordinates": [-77.2463166666667,39.8204333333333]}},
{ "type": "Feature", "properties": {"name": "Pegrams Artillery Brigade Reserve 3 Corps", "state": "OT","mon_type": "AM", "icon": "2","picture": "M12572007-09-23T09_33_50-06_00.jpg"},"geometry": {"type": "Point", "coordinates": [-77.2465166666667,39.8203333333333]}},
{ "type": "Feature", "properties": {"name": "Pender Div 3 Corps (CSA)", "state": "OT","mon_type": "DM", "icon": "7","picture": "M12582007-09-23T09_37_34-06_00.jpg"},"geometry": {"type": "Point", "coordinates": [-77.2457333333333,39.82175]}},
{ "type": "Feature", "properties": {"name": "Perrin Brigade Pender Div", "state": "SC","mon_type": "BM", "icon": "8","picture": "M12592007-09-23T09_36_09-06_00.jpg"},"geometry": {"type": "Point", "coordinates": [-77.2454333333333,39.8223833333333]}},
{ "type": "Feature", "properties": {"name": "Perry (Lang) Brigade Anderson Div", "state": "FL","mon_type": "BM", "icon": "8","picture": "M12602008-01-09T15_32_25-07_00.jpg"},"geometry": {"type": "Point", "coordinates": [-77.24355,39.8088333333333]}},
{ "type": "Feature", "properties": {"name": "Perry Brigade Anderson Div", "state": "FL","mon_type": "BM", "icon": "8","picture": "M12612007-10-06T09_10_06-06_00.jpg"},"geometry": {"type": "Point", "coordinates": [-77.2528,39.81155]}},
{ "type": "Feature", "properties": {"name": "Pettigrew Brigade Heth Div", "state": "NC","mon_type": "BM", "icon": "8","picture": "M12622007-09-30T17_44_57-06_00.jpg"},"geometry": {"type": "Point", "coordinates": [-77.2483166666667,39.8175666666667]}},
{ "type": "Feature", "properties": {"name": "Pickett Div 1 Corps (CSA)", "state": "NC","mon_type": "DM", "icon": "7","picture": "M12642007-10-06T09_10_15-06_00.jpg"},"geometry": {"type": "Point", "coordinates": [-77.2517166666667,39.8129166666667]}},
{ "type": "Feature", "properties": {"name": "Pitzer Woods", "state": "OT","mon_type": "BL", "icon": "19","picture": "M13672007-10-11T15_50_09-06_00.jpg"},"geometry": {"type": "Point", "coordinates": [-77.2562666666667,39.8046333333333]}},
{ "type": "Feature", "properties": {"name": "PNoel Inscription", "state": "OT","mon_type": "OT", "icon": "19","picture": "M13742007-11-07T08_18_48-07_00.jpg"},"geometry": {"type": "Point", "coordinates": [-77.2424666666667,39.79185]}},
{ "type": "Feature", "properties": {"name": "Poagues Artiller Brigade (Pender)", "state": "OT","mon_type": "AM", "icon": "2","picture": "M12652007-09-30T17_45_08-06_00.jpg"},"geometry": {"type": "Point", "coordinates": [-77.2486666666667,39.8169]}},
{ "type": "Feature", "properties": {"name": "Pogue\\'s Howitzers", "state": "OT","mon_type": "AM", "icon": "2","picture": "M12662007-10-15T17_56_25-06_00.jpg"},"geometry": {"type": "Point", "coordinates": [-77.2505166666667,39.8146833333333]}},
{ "type": "Feature", "properties": {"name": "Posey Brigade Anderson Div", "state": "MS","mon_type": "BM", "icon": "8","picture": "M12672007-10-15T17_58_05-06_00.jpg"},"geometry": {"type": "Point", "coordinates": [-77.2504333333333,39.8146]}},
{ "type": "Feature", "properties": {"name": "Powhatan VA Artillery (Cunningham)", "state": "VA","mon_type": "AM", "icon": "2","picture": "NA"},"geometry": {"type": "Point", "coordinates": [-77.2442166666667,39.82985]}},
{ "type": "Feature", "properties": {"name": "Pulaski GA Artillery (Fraser)", "state": "GA","mon_type": "AM", "icon": "2","picture": "M12692007-10-19T16_26_50-06_00.jpg"},"geometry": {"type": "Point", "coordinates": [-77.2552666666667,39.7951333333333]}},
{ "type": "Feature", "properties": {"name": "Purcell VA Artillery (McGraw)", "state": "NC","mon_type": "AM", "icon": "2","picture": "M12702007-09-23T09_34_18-06_00.jpg"},"geometry": {"type": "Point", "coordinates": [-77.2460166666667,39.8210333333333]}},
{ "type": "Feature", "properties": {"name": "Ramseur Brigade Rodes Div", "state": "NC","mon_type": "BM", "icon": "8","picture": "M12712007-08-08T13_46_51-06_00.jpg"},"geometry": {"type": "Point", "coordinates": [-77.2446333333333,39.8483666666667]}},
{ "type": "Feature", "properties": {"name": "Reynolds Killed", "state": "OT","mon_type": "OT", "icon": "19","picture": "M12742007-08-02T15_00_17-06_00.jpg"},"geometry": {"type": "Point", "coordinates": [-77.25095,39.83445]}},
{ "type": "Feature", "properties": {"name": "Reynolds Statue", "state": "OT","mon_type": "BZ", "icon": "14","picture": "M12752007-08-03T07_43_54-06_00.jpg"},"geometry": {"type": "Point", "coordinates": [-77.2512833333333,39.8379166666667]}},
{ "type": "Feature", "properties": {"name": "Reynolds Statue", "state": "OT","mon_type": "BZ", "icon": "14","picture": "M12762007-08-17T11_45_13-06_00.jpg"},"geometry": {"type": "Point", "coordinates": [-77.2303666666667,39.8213333333333]}},
{ "type": "Feature", "properties": {"name": "Rhodes Div 2 Corps (CSA)", "state": "OT","mon_type": "DM", "icon": "7","picture": "M12772007-08-09T16_09_41-06_00.jpg"},"geometry": {"type": "Point", "coordinates": [-77.2432,39.8483333333333]}},
{ "type": "Feature", "properties": {"name": "Richmond Fayette VA Artillery (Macon)", "state": "VA","mon_type": "AM", "icon": "2","picture": "M12782007-10-11T15_50_01-06_00.jpg"},"geometry": {"type": "Point", "coordinates": [-77.25615,39.8053]}},
{ "type": "Feature", "properties": {"name": "Robertson Brigade Hood Div", "state": "TX","mon_type": "BM", "icon": "8","picture": "M12802007-10-26T15_59_21-06_00.jpg"},"geometry": {"type": "Point", "coordinates": [-77.2543833333333,39.7903666666667]}},
{ "type": "Feature", "properties": {"name": "Robertson Cavalry Brigade", "state": "OT","mon_type": "AM", "icon": "3","picture": "M12822007-08-06T16_28_56-06_00.jpg"},"geometry": {"type": "Point", "coordinates": [-77.2529833333333,39.8272]}},
{ "type": "Feature", "properties": {"name": "Robinson Statue", "state": "OT","mon_type": "BZ", "icon": "14","picture": "M12832007-08-05T15_42_37-06_00.jpg"},"geometry": {"type": "Point", "coordinates": [-77.2418666666667,39.8434833333333]}},
{ "type": "Feature", "properties": {"name": "Rockbridge VA Artillery (Graham)", "state": "VA","mon_type": "AM", "icon": "2","picture": "M12842007-08-19T16_34_54-06_00.jpg"},"geometry": {"type": "Point", "coordinates": [-77.2130333333333,39.829]}},
{ "type": "Feature", "properties": {"name": "Roger House", "state": "OT","mon_type": "HO", "icon": "16","picture": "M13872008-01-09T15_32_45-07_00.jpg"},"geometry": {"type": "Point", "coordinates": [-77.24405,39.8083166666667]}},
{ "type": "Feature", "properties": {"name": "Rowan NC Artillery", "state": "NC","mon_type": "AM", "icon": "2","picture": "M12852007-10-22T17_30_43-06_00.jpg"},"geometry": {"type": "Point", "coordinates": [-77.2541333333333,39.78535]}},
{ "type": "Feature", "properties": {"name": "Rowan NC Artillery", "state": "NC","mon_type": "AM", "icon": "2","picture": "M12862007-10-22T17_30_52-06_00.jpg"},"geometry": {"type": "Point", "coordinates": [-77.25245,39.7843166666667]}},
{ "type": "Feature", "properties": {"name": "Salem VA Artillery (Griffin)", "state": "VA","mon_type": "AM", "icon": "2","picture": "M12872007-09-06T14_48_54-06_00.jpg"},"geometry": {"type": "Point", "coordinates": [-77.2448333333333,39.8264166666667]}},
{ "type": "Feature", "properties": {"name": "SC State Memorial", "state": "SC","mon_type": "ST", "icon": "18","picture": "M12892007-07-17T17_44_24-06_00.jpg"},"geometry": {"type": "Point", "coordinates": [-77.2558666666667,39.79785]}},
{ "type": "Feature", "properties": {"name": "Scales Brigade Pender Div", "state": "NC","mon_type": "BM", "icon": "8","picture": "M12902007-09-23T09_34_27-06_00.jpg"},"geometry": {"type": "Point", "coordinates": [-77.24685,39.8199333333333]}},
{ "type": "Feature", "properties": {"name": "Sedgwick Statue", "state": "OT","mon_type": "BZ", "icon": "14","picture": "M12912007-07-20T18_43_18-06_00.jpg"},"geometry": {"type": "Point", "coordinates": [-77.2339666666667,39.7963]}},
{ "type": "Feature", "properties": {"name": "Semmes Brigade McLaws Div", "state": "GA","mon_type": "BM", "icon": "8","picture": "M12922007-10-31T15_10_18-06_00.jpg"},"geometry": {"type": "Point", "coordinates": [-77.2471,39.7949833333333]}},
{ "type": "Feature", "properties": {"name": "Semmes Brigade McLaws Div", "state": "GA","mon_type": "BM", "icon": "8","picture": "M12932007-10-19T16_26_58-06_00.jpg"},"geometry": {"type": "Point", "coordinates": [-77.2559833333333,39.79875]}},
{ "type": "Feature", "properties": {"name": "Sherfy House", "state": "OT","mon_type": "HO", "icon": "16","picture": "M13902008-01-10T17_07_50-07_00.jpg"},"geometry": {"type": "Point", "coordinates": [-77.2487333333333,39.80365]}},
{ "type": "Feature", "properties": {"name": "Shultz Woods", "state": "OT","mon_type": "BL", "icon": "19","picture": "M13602007-09-06T15_50_06-06_00.jpg"},"geometry": {"type": "Point", "coordinates": [-77.2447833333333,39.82765]}},
{ "type": "Feature", "properties": {"name": "Sickles Wounding", "state": "OT","mon_type": "OT", "icon": "19","picture": "M12942008-01-08T16_20_30-07_00.jpg"},"geometry": {"type": "Point", "coordinates": [-77.24275,39.8025333333333]}},
{ "type": "Feature", "properties": {"name": "Slocum Statue", "state": "OT","mon_type": "BZ", "icon": "14","picture": "M12952007-07-28T07_58_54-06_00.jpg"},"geometry": {"type": "Point", "coordinates": [-77.2241166666667,39.8191666666667]}},
{ "type": "Feature", "properties": {"name": "Smith Brigade Early Div", "state": "VA","mon_type": "BM", "icon": "1","picture": "M12962007-08-26T08_25_09-06_00.jpg"},"geometry": {"type": "Point", "coordinates": [-77.2158666666667,39.8152]}},
{ "type": "Feature", "properties": {"name": "Sniper Position - Devils Den", "state": "OT","mon_type": "OT", "icon": "19","picture": "M12972007-08-02T16_21_40-06_00.jpg"},"geometry": {"type": "Point", "coordinates": [-77.2429166666667,39.7916833333333]}},
{ "type": "Feature", "properties": {"name": "Snyder House", "state": "OT","mon_type": "HO", "icon": "16","picture": "M13712007-10-14T18_19_45-06_00.jpg"},"geometry": {"type": "Point", "coordinates": [-77.2554333333333,39.8019333333333]}},
{ "type": "Feature", "properties": {"name": "Soldiers & Sailors of Confederacy", "state": "OT","mon_type": "OT", "icon": "18","picture": "M12982007-07-20T18_35_53-06_00.jpg"},"geometry": {"type": "Point", "coordinates": [-77.2541166666667,39.7849666666667]}},
{ "type": "Feature", "properties": {"name": "Spangler House and Barn", "state": "OT","mon_type": "HO", "icon": "16","picture": "M13662007-10-06T09_10_41-06_00.jpg"},"geometry": {"type": "Point", "coordinates": [-77.2499666666667,39.8084833333333]}},
{ "type": "Feature", "properties": {"name": "Spangler Woods", "state": "OT","mon_type": "BL", "icon": "19","picture": "M13652007-10-06T09_10_32-06_00.jpg"},"geometry": {"type": "Point", "coordinates": [-77.2521,39.8123]}},
{ "type": "Feature", "properties": {"name": "Spanglers Spring", "state": "OT","mon_type": "OT", "icon": "19","picture": "M13442007-08-02T16_18_02-06_00.jpg"},"geometry": {"type": "Point", "coordinates": [-77.2172833333333,39.8145]}},
{ "type": "Feature", "properties": {"name": "Steuart Brigade Johnson Div", "state": "NC","mon_type": "BM", "icon": "8","picture": "M13012007-08-26T08_25_18-06_00.jpg"},"geometry": {"type": "Point", "coordinates": [-77.2152166666667,39.8172833333333]}},
{ "type": "Feature", "properties": {"name": "Taylor Killed", "state": "OT","mon_type": "OT", "icon": "19","picture": "M13052007-10-28T17_01_17-06_00.jpg"},"geometry": {"type": "Point", "coordinates": [-77.2412666666667,39.7956]}},
{ "type": "Feature", "properties": {"name": "Taylor VA Artillery", "state": "VA","mon_type": "AM", "icon": "2","picture": "M13062007-10-14T18_38_26-06_00.jpg"},"geometry": {"type": "Point", "coordinates": [-77.2562833333333,39.8011833333333]}},
{ "type": "Feature", "properties": {"name": "The Coster Avenue Mural", "state": "OT","mon_type": "OT", "icon": "19","picture": "M13452007-08-14T06_30_46-06_00.jpg"},"geometry": {"type": "Point", "coordinates": [-77.22745,39.8350333333333]}},
{ "type": "Feature", "properties": {"name": "Thomas Brigade Pender Div", "state": "GA","mon_type": "BM", "icon": "8","picture": "M13072007-09-23T09_34_36-06_00.jpg"},"geometry": {"type": "Point", "coordinates": [-77.24605,39.8212]}},
{ "type": "Feature", "properties": {"name": "TN State Memorial", "state": "TN","mon_type": "ST", "icon": "18","picture": "M13082007-07-20T16_21_35-06_00.jpg"},"geometry": {"type": "Point", "coordinates": [-77.2479,39.8177166666667]}},
{ "type": "Feature", "properties": {"name": "Troup GA Artillery 1st Section (Carlton)", "state": "GA","mon_type": "AM", "icon": "2","picture": "M13092007-10-19T16_27_09-06_00.jpg"},"geometry": {"type": "Point", "coordinates": [-77.2557833333333,39.7974666666667]}},
{ "type": "Feature", "properties": {"name": "Troup GA Artillery 2nd Section (Carlton)", "state": "GA","mon_type": "AM", "icon": "2","picture": "M13102007-10-19T16_27_18-06_00.jpg"},"geometry": {"type": "Point", "coordinates": [-77.25605,39.7990666666667]}},
{ "type": "Feature", "properties": {"name": "TX Brigade (Robertson)", "state": "TX","mon_type": "BM", "icon": "8","picture": "M13112007-10-26T15_59_29-06_00.jpg"},"geometry": {"type": "Point", "coordinates": [-77.2544166666667,39.7902166666667]}},
{ "type": "Feature", "properties": {"name": "TX State Memorial", "state": "TX","mon_type": "ST", "icon": "18","picture": "M13122007-07-17T17_44_51-06_00.jpg"},"geometry": {"type": "Point", "coordinates": [-77.2543,39.79005]}},
{ "type": "Feature", "properties": {"name": "US Regular Battalion of Engineers (Mendell)", "state": "US","mon_type": "EN", "icon": "11","picture": "M13132008-01-05T17_02_05-07_00.jpg"},"geometry": {"type": "Point", "coordinates": [-77.2326833333333,39.8079833333333]}},
{ "type": "Feature", "properties": {"name": "US Regulars", "state": "US","mon_type": "OT", "icon": "11","picture": "M13142007-12-28T17_24_33-07_00.jpg"},"geometry": {"type": "Point", "coordinates": [-77.2358,39.81125]}},
{ "type": "Feature", "properties": {"name": "US Signal Corps", "state": "US","mon_type": "OT", "icon": "11","picture": "M13152007-12-27T16_50_23-07_00.jpg"},"geometry": {"type": "Point", "coordinates": [-77.23655,39.7925]}},
{ "type": "Feature", "properties": {"name": "VA State Memorial", "state": "VA","mon_type": "ST", "icon": "18","picture": "M13162007-07-17T18_04_17-06_00.jpg"},"geometry": {"type": "Point", "coordinates": [-77.2503166666667,39.81411]}},
{ "type": "Feature", "properties": {"name": "Vincent Wounded", "state": "OT","mon_type": "OT", "icon": "19","picture": "M13172007-12-27T16_50_35-07_00.jpg"},"geometry": {"type": "Point", "coordinates": [-77.2369666666667,39.7907333333333]}},
{ "type": "Feature", "properties": {"name": "Vincent Wounded Inscription", "state": "OT","mon_type": "OT", "icon": "19","picture": "M13182007-12-27T16_50_45-07_00.jpg"},"geometry": {"type": "Point", "coordinates": [-77.2371,39.7913833333333]}},
{ "type": "Feature", "properties": {"name": "VT State Memorial", "state": "VT","mon_type": "ST", "icon": "18","picture": "M1972007-12-29T14_46_42-07_00.jpg"},"geometry": {"type": "Point", "coordinates": [-77.2364,39.8094]}},
{ "type": "Feature", "properties": {"name": "Wadsworth Statue", "state": "OT","mon_type": "BZ", "icon": "14","picture": "M13192007-08-05T14_13_47-06_00.jpg"},"geometry": {"type": "Point", "coordinates": [-77.2477166666667,39.8382166666667]}},
{ "type": "Feature", "properties": {"name": "Walker (SW) Brigade Johnson Div", "state": "VA","mon_type": "BM", "icon": "1","picture": "M13202007-08-26T08_25_30-06_00.jpg"},"geometry": {"type": "Point", "coordinates": [-77.2157,39.81625]}},
{ "type": "Feature", "properties": {"name": "Warren Statue", "state": "OT","mon_type": "BZ", "icon": "14","picture": "M13222007-12-27T16_50_54-07_00.jpg"},"geometry": {"type": "Point", "coordinates": [-77.2366833333333,39.7925]}},
{ "type": "Feature", "properties": {"name": "Washington Company 1 LA Artillery (Squires)", "state": "LA","mon_type": "AM", "icon": "2","picture": "M13232007-10-14T18_18_59-06_00.jpg"},"geometry": {"type": "Point", "coordinates": [-77.25605,39.8028666666667]}},
{ "type": "Feature", "properties": {"name": "Washington Company 2 LA Artillery (Richardson)", "state": "LA","mon_type": "AM", "icon": "2","picture": "M13702007-10-12T09_27_24-06_00.jpg"},"geometry": {"type": "Point", "coordinates": [-77.2559333333333,39.8034166666667]}},
{ "type": "Feature", "properties": {"name": "Washington Company 3 LA Artillery (Miller)", "state": "LA","mon_type": "AM", "icon": "2","picture": "M13252007-10-14T18_19_10-06_00.jpg"},"geometry": {"type": "Point", "coordinates": [-77.2560666666667,39.8027333333333]}},
{ "type": "Feature", "properties": {"name": "Washington Company 4 LA Artillery (Norcom)", "state": "LA","mon_type": "AM", "icon": "2","picture": "M13692007-10-12T09_27_15-06_00.jpg"},"geometry": {"type": "Point", "coordinates": [-77.2559833333333,39.8037666666667]}},
{ "type": "Feature", "properties": {"name": "Webb Statue", "state": "OT","mon_type": "BZ", "icon": "14","picture": "M13272007-12-25T17_01_11-07_00.jpg"},"geometry": {"type": "Point", "coordinates": [-77.2353666666667,39.81295]}},
{ "type": "Feature", "properties": {"name": "Wells Statue", "state": "OT","mon_type": "BZ", "icon": "14","picture": "M13282007-10-22T17_31_00-06_00.jpg"},"geometry": {"type": "Point", "coordinates": [-77.2453333333333,39.7849166666667]}},
{ "type": "Feature", "properties": {"name": "Wentz House", "state": "OT","mon_type": "HO", "icon": "16","picture": "M13792007-12-09T12_55_45-07_00.jpg"},"geometry": {"type": "Point", "coordinates": [-77.2497666666667,39.8019]}},
{ "type": "Feature", "properties": {"name": "Wilcox Brigade Anderson Div", "state": "AL","mon_type": "BM", "icon": "8","picture": "M13302007-10-06T09_10_23-06_00.jpg"},"geometry": {"type": "Point", "coordinates": [-77.2551833333333,39.80875]}},
{ "type": "Feature", "properties": {"name": "Wilcox Brigade Anderson Div", "state": "AL","mon_type": "BM", "icon": "8","picture": "M13292008-01-09T15_32_35-07_00.jpg"},"geometry": {"type": "Point", "coordinates": [-77.2459,39.8052833333333]}},
{ "type": "Feature", "properties": {"name": "Willards Brigade", "state": "OT","mon_type": "BM", "icon": "11","picture": "M13322008-01-09T14_59_05-07_00.jpg"},"geometry": {"type": "Point", "coordinates": [-77.24485,39.8066833333333]}},
{ "type": "Feature", "properties": {"name": "Witness Tree (Culp\\'s Hill)", "state": "OT","mon_type": "WT", "icon": "19","picture": "M13472007-09-02T09_13_32-06_00.jpg"},"geometry": {"type": "Point", "coordinates": [-77.2190666666667,39.8184]}},
{ "type": "Feature", "properties": {"name": "Witness Tree (Devil Den)", "state": "OT","mon_type": "WT", "icon": "19","picture": "M13752007-11-08T08_53_15-07_00.jpg"},"geometry": {"type": "Point", "coordinates": [-77.2427166666667,39.7918666666667]}},
{ "type": "Feature", "properties": {"name": "Witness Tree (National Cemetery)", "state": "OT","mon_type": "WT", "icon": "19","picture": "M13482007-09-02T09_13_43-06_00.jpg"},"geometry": {"type": "Point", "coordinates": [-77.2315,39.8177666666667]}},
{ "type": "Feature", "properties": {"name": "Wofford Brigade McLaws Div", "state": "GA","mon_type": "BM", "icon": "8","picture": "M13342007-11-19T16_43_38-07_00.jpg"},"geometry": {"type": "Point", "coordinates": [-77.2506333333333,39.8007]}},
{ "type": "Feature", "properties": {"name": "Wofford Brigade McLaws Div", "state": "GA","mon_type": "BM", "icon": "8","picture": "M13352007-10-12T09_27_07-06_00.jpg"},"geometry": {"type": "Point", "coordinates": [-77.2561166666667,39.80315]}},
{ "type": "Feature", "properties": {"name": "Women\\'s Memorial", "state": "OT","mon_type": "BZ", "icon": "14","picture": "M13362007-08-18T18_31_04-06_00.jpg"},"geometry": {"type": "Point", "coordinates": [-77.22935,39.8205]}},
{ "type": "Feature", "properties": {"name": "Wright Brigade Anderson Div", "state": "GA","mon_type": "BM", "icon": "8","picture": "M13382007-12-25T17_01_19-07_00.jpg"},"geometry": {"type": "Point", "coordinates": [-77.2367333333333,39.8118833333333]}},
{ "type": "Feature", "properties": {"name": "Wright Brigade Anderson Div", "state": "GA","mon_type": "BM", "icon": "8","picture": "M13392007-10-19T16_12_04-06_00.jpg"},"geometry": {"type": "Point", "coordinates": [-77.2507833333333,39.8141]}}
        ]
}